[{"web":"http://salva-quardia.cz/","addr":"Selsk\u00e9 n\u00e1m. 484/63","title":"Salva_Quardia","lon":17.2932786,"phone":"+420739654431","lat":49.6142365,"type":"node","id":296740143,"icon":"_litecoin"},{"city":"5240 Odense N\u00d8","addr":"\u00c5sumvej 93","title":"Morning Train Technologies ApS","country":"DK","lon":10.4298689,"web":"http://morningtrain.dk","lat":55.4011442,"type":"node","id":341624136,"icon":"_litecoin"},{"city":"M6G 1K4 Toronto","addr":"Bloor Street West 600","title":"Snakes & Lattes","country":"CA","lon":-79.4130037,"phone":"(647) 342 9229","web":"http://www.snakesandlattes.com/","lat":43.6647999,"desc":"Board Game Caf\u00e9","type":"node","id":387456095,"icon":"food_cafe"},{"city":"3812 VW Amersfoort","addr":"Violenstraat 71","title":"snackbar \"De Hoefslag\"","lon":5.3636061,"phone":"033-88 91 884","web":"http://snackbardehoefslag.nl/","lat":52.160142,"type":"node","id":457564795,"icon":"food_fastfood"},{"city":"20156 Milano","addr":"Via Mario Pannunzio 4","title":"Juniorbit Sas - Informatica","country":"IT","lon":9.1370482,"phone":"+39 02 33431871","web":"http://juniorbit.it/","lat":45.5019349,"desc":"Consulenza informatica, siti web, consulenza bitcoin per esercenti.","type":"node","id":705704820,"icon":"_litecoin"},{"city":"12207 Albany","addr":"Clinton Square 5","title":"CT@HB","lon":-73.7504154,"phone":"+01 518 698 9070","web":"http://www.coffeetimehellas.com","lat":42.6540939,"type":"node","id":1400582171,"icon":"food_cafe"},{"city":"22359 Hamburg","addr":"Kattjahren 8","title":"n7media - Agentur f\u00fcr Kommunikations- und Webdesign","lon":10.163109,"web":"http://www.n7media.de","lat":53.6528377,"type":"node","id":1723084643,"icon":"_litecoin"},{"city":"34439 Willebadessen","addr":"Alte Schulstra\u00dfe 5","title":"Kunstkopien in \u00d6l auf Leinwand - Dorothea Adam","country":"DE","lon":9.0330749,"lat":51.6267552,"type":"node","id":1723263308,"icon":"_litecoin"},{"addr":"\u0392\u03b1\u03c3\u03b9\u03bb\u03b9\u03ba\u03ae\u03c2 6","title":"\u039a\u03cc\u03bc\u03bc\u03b1 \u03a0\u03b5\u03b9\u03c1\u03b1\u03c4\u03ce\u03bd \u0395\u03bb\u03bb\u03ac\u03b4\u03b1\u03c2 - Pirate Party of Greece - \u039a\u03b5\u03bd\u03c4\u03c1\u03b9\u03ba\u03cc \u0393\u03c1\u03b1\u03c6\u03b5\u03af\u03bf","lon":23.7282673,"lat":37.9776512,"type":"node","id":1996272959,"icon":"_litecoin"},{"city":"1201 Gen\u00e8ve","addr":"rue de Zurich 6","title":"Cr\u00eaperie des P\u00e2quis","lon":6.1485351,"web":"http://creperie-paquis.com/","lat":46.2113057,"type":"node","id":2050878473,"icon":"food_restaurant"},{"city":"70800 Ostrava","addr":"\u017dilinsk\u00e1 1889/13","title":"DRU\u017dBA BOULDERING WALL","country":"CZ","lon":18.1822722,"web":"http://www.druzba.9e.cz","lat":49.8370839,"type":"node","id":2140192738,"icon":"food_bar"},{"city":"3828 NW Hoogland","addr":"Van Boetzelaerlaan 3","title":"Biologisch Dynamische Boerderij Heerlijkheid Groot Weede","lon":5.3729424,"phone":"033 4331153","web":"http://www.weede.nl/winkel.htm","lat":52.1753363,"type":"node","id":2251342304,"icon":"shopping_convenience"},{"city":"39576 Stendal","addr":"Am Uchtedamm 23","title":"Edds Englisch","country":"DE","lon":11.8698283,"email":"edw@rdturner.co.uk","phone":"+49 15202 021764","web":"http://www.rdturner.co.uk","lat":52.6114825,"type":"node","id":2266611466,"icon":"_litecoin"},{"addr":"Viale Europa 5","title":"Wall Street Caf\u00e9","lon":9.5034086,"phone":"+39 035 4933496","lat":45.6616644,"type":"node","id":2342088989,"icon":"food_cafe"},{"city":"20123 Milano","addr":"Via Gaetano Negri 4","title":"X-Laboratories","lon":9.184378,"email":"info@xlabstudio.com","web":"http://xlabstudio.com/","lat":45.4656313,"desc":"Sistemi informatici e analisi tecnica dei mercati di criptovalute","type":"node","id":2349924264,"icon":"_litecoin"},{"city":"50143 Firenze","addr":"Via dell'Olivuzzo 154","title":"Tuxel","country":"IT","lon":11.2175238,"phone":"+39 055 7330055","web":"http://tuxel.com","lat":43.7667624,"type":"node","id":2361696668,"icon":"_litecoin"},{"web":"http://www.svcommerce.it/","addr":"Via Vincenzo Monti 1","title":"SV Commerce S.R.L.","lon":15.0721251,"lat":37.5384634,"desc":"SV Commerce SRL \u00e8 vendita al dettaglio e distribuzione di materiale informatico, elettronica di consumo e di sigarette elettroniche","type":"node","id":2387462667,"icon":"_litecoin"},{"web":"http://www.virtualnimeny.com","title":"Virtu\u00e1ln\u00edM\u011bny.com","country":"CZ","lon":14.7127509,"lat":49.272533,"type":"node","id":2398847646,"icon":"_litecoin"},{"web":"http://paulchristieartists.co.uk/","title":"Paul Christie Artists","lon":-0.8079667,"lat":51.2142696,"type":"node","id":2405816379,"icon":"_litecoin"},{"web":"http://missing-ink.com/","title":"RedBedlam","lon":-0.0831539,"lat":50.8651654,"type":"node","id":2405833158,"icon":"_litecoin"},{"web":"http://metalair.org","title":"MetaLair","lon":-0.0830144,"lat":50.8649995,"type":"node","id":2405835931,"icon":"_litecoin"},{"web":"http://ravenscourt.co.uk/","title":"Ravenscourt Design","lon":-0.8078318,"lat":51.2142822,"type":"node","id":2405854726,"icon":"_litecoin"},{"web":"http://virtualdoctors.org/","title":"Virtual Doctors Charity","lon":-0.0829556,"lat":50.8650162,"type":"node","id":2405865895,"icon":"_litecoin"},{"city":"BN2 1NB Brighton","addr":"Chesham Street Brighton 19A","title":"Coast Networks","lon":-0.1154337,"phone":"+441273808691","web":"http://coastnetworks.co.uk/","lat":50.8175802,"type":"node","id":2406477656,"icon":"_litecoin"},{"city":"BN14 8EY Worthing","addr":"Marlowe Road 53","title":"Bells and Whistles Bespoke Wedding Stationery","lon":-0.3666919,"web":"http://bellsandwhistles.info/","lat":50.8260584,"type":"node","id":2420299259,"icon":"_litecoin"},{"city":"26452 Weston","addr":"Garton Plaza 29","title":"MountaineerIT","lon":-80.4592545,"lat":39.0379364,"type":"node","id":2441788994,"icon":"shopping_computer"},{"city":"70900 Toivala","addr":"Vallantie 6 ","title":"Ostosmarket","lon":27.7273641,"web":"http://ostosmarket.fi/","lat":62.9886083,"type":"node","id":2456905776,"icon":"shopping_convenience"},{"city":"R3B1B6 Winnipeg","addr":"Main Street 4th Floor - 456","title":"Winnipeg Technology & Computer Renewal Express","lon":-97.1392924,"phone":"(204) 272-2945","web":"http://www.wtcr.ca/","lat":49.8973665,"type":"node","id":2459547000,"icon":"shopping_computer"},{"city":"06536 S\u00fcdharz","addr":"Hallesche Stra\u00dfe 21","title":"Zahnarztpraxis Dr. Andreas Schn\u00e4ckel / Dr. Andreas Schn\u00e4ckel, Dentist","country":"DE","lon":11.0731673,"phone":"0049  (0)34651  456529","lat":51.4631118,"type":"node","id":2513893096,"icon":"_litecoin"},{"city":" Amersfoort","title":"Esper Consultancy: Exploring Open Source Opportunities","lon":5.366101,"web":"http://esperconsultancy.nl","lat":52.1576407,"type":"node","id":2518971373,"icon":"_litecoin"},{"city":"821 08 Bratislava","addr":"P\u00e1ri\u010dkova 3","title":"SubWay","lon":17.1260727,"lat":48.1476337,"type":"node","id":2519654523,"icon":"food_fastfood"},{"web":"http://tendersoft.pl/","title":"Tendersoft","lon":20.9167609,"lat":52.251567,"desc":"Business Process optimization - IT Systems development - Bitcoin consulting","type":"node","id":2527000230,"icon":"_litecoin"},{"city":"28270 Charlotte","addr":"Providence Road 8016-100","title":"Arboretum Cleaners","lon":-80.7804745,"phone":"+17047162815","lat":35.0985493,"type":"node","id":2532256833,"icon":"_litecoin"},{"city":"38033 Cavalese","addr":"Via Fratelli Bronzetti 22","title":"Salone Boschetto","lon":11.461814,"web":"https://sites.google.com/site/saloneboschetto/home","lat":46.2908465,"type":"node","id":2534783919,"icon":"shopping_hairdresser"},{"web":"http://artefacti.de/","title":"Artefacti Ltd.","lon":12.4361553,"lat":50.9928886,"type":"node","id":2537222032,"icon":"_litecoin"},{"city":"07010 Palma de Mallorca","addr":"C/ Joan Mas 3","title":"Aglocem S.L.","lon":2.6505102,"web":"http://www.aglocem.com/","lat":39.5892012,"type":"node","id":2540198987,"icon":"shopping_computer"},{"city":"45840 Findlay","addr":"East Sandusky Street 437","title":"Hotspot Customs LLC","lon":-83.6426788,"phone":"567-301-3710","web":"http://www.hotspotcustoms.com","lat":41.0367329,"type":"node","id":2543146625,"icon":"shopping_computer"},{"city":"44119 Euclid","addr":"East 212th Street 864","title":"Euclid Friendly Computer Service","lon":-81.5329869,"phone":"+1 888 304 5921","lat":41.587065,"type":"node","id":2544913559,"icon":"_litecoin"},{"city":" Novi Sad","title":"iDoktor NS - Apple prodaja i servis BTC LTC exchange","lon":19.836452,"phone":"+381631527527","web":"http://www.idoktor.biz","lat":45.252246,"type":"node","id":2545942169,"icon":"shopping_mobile_phone"},{"city":"30123 Venezia","addr":"Piscina Venier 848","title":"Tourist Apartment Accademia Quiet and New","country":"IT","lon":12.3290575,"web":"http://www.veniceapartmentz.com/en/Accademia/6718","lat":45.4305648,"type":"node","id":2549240429,"icon":"_litecoin"},{"web":"http://www.visiblehq.com","title":"Visible HQ - SEO and Marketing","lon":-111.8742232,"phone":"801-674-8165","lat":40.764428,"type":"node","id":2551785333,"icon":"_litecoin"},{"web":"http://www.forked.net/","title":"Fork Networking Inc","lon":-122.6808304,"lat":45.5214864,"type":"node","id":2551948313,"icon":"_litecoin"},{"web":"https://coincle.com","addr":"Bath Street 272","title":"Coincle Ltd","lon":-4.2687151,"lat":55.8653717,"type":"node","id":2552419856,"icon":"_litecoin"},{"city":"03447 Fitzwilliam, NH","addr":"Old Troy Road 211","title":"Stone Farm on Liberty Acres","lon":-72.2114546,"phone":"603-585-3173","web":"https://www.facebook.com/StoneLibertyAcres","lat":42.7710296,"desc":"Lodging","type":"node","id":2553813091,"icon":"_litecoin"},{"city":"50678 K\u00f6ln","addr":"Karolingerring 34","title":"mika amaro - Urban Bikes, Fahrr\u00e4der","lon":6.9572049,"email":"info@mika-amaro.com","phone":"+49 221 204 217 23","lat":50.9220684,"type":"node","id":2555413820,"icon":"shopping_bicycle"},{"web":"http://www.superbithost.com","title":"Superbithost.com - Offshore Hosting solutions","lon":23.3594738,"phone":"+359878487111","lat":42.6504203,"type":"node","id":2555754313,"icon":"_litecoin"},{"web":"http://www.saucal.com/","title":"Saucal","lon":-114.0700395,"phone":"+1 587 887 4706","lat":51.0004905,"desc":"Web design, web development and inbound marketing.","type":"node","id":2555963621,"icon":"_litecoin"},{"web":"http://www.netsprig.com/","title":"Netsprig Foundation","lon":23.1560071,"phone":"+16502898186","lat":53.1334225,"type":"node","id":2557413020,"icon":"_litecoin"},{"city":"6257 Pivka","addr":"Jur\u0161\u010de 64","title":"Krejzi","lon":14.2948589,"email":"info@krejzi.si","phone":"+386 41 636029","web":"http://www.krejzi.si/","lat":45.6658443,"type":"node","id":2558589239,"icon":"_litecoin"},{"city":"26554 Fairmont","addr":"Village Drive ","title":"createTank","lon":-80.1953699,"phone":"+1 800 975 8379","web":"http://www.createtank.com","lat":39.422185,"type":"node","id":2559088007,"icon":"_litecoin"},{"city":"08015 Barcelona","addr":"Carrer del Consell de Cent 159","title":"MADE Makerspace","lon":2.1543006,"phone":"+34 935 31 40 40","web":"http://made-bcn.org","lat":41.3827248,"type":"node","id":2562787043,"icon":"_litecoin"},{"city":"LV-1011 R\u012bga","addr":"L\u0101\u010dpl\u0113\u0161a iela ","title":"Romantic One Bedroom With Balcony in Riga Center for short term rent","lon":24.1228184,"web":"http://www.adormo.com/en/Romantic-One-Bedroom-With-Balcony-in-Riga-Center/1376","lat":56.9553952,"type":"node","id":2563513960,"icon":"_litecoin"},{"city":"27834 Greenville","title":"Computer Wizard of Greenville","lon":-77.4733184,"phone":"2526480974","web":"https://www.facebook.com/computerwizardofgreenville","lat":35.6027144,"type":"node","id":2563847369,"icon":"shopping_computer"},{"city":" Bogot\u00e1 D.C.","addr":"Carrera 16 # 85-12 Of 202 ","title":"AUXO S.A.S","lon":-74.055665,"phone":"6083124","web":"http://auxo.co","lat":4.6705903,"type":"node","id":2564997350,"icon":"_litecoin"},{"web":"http://www.ciggyjuice.co.uk","title":"CiggyJuice (Sway)","lon":-1.6044608,"phone":"+44 7528 829590","lat":50.7861012,"type":"node","id":2566164204,"icon":"_litecoin"},{"city":"47003 Valladolid","addr":"Calle de Fray Luis de Le\u00f3n 19","title":"METROPOLIS VALLADOLID","lon":-4.7215494,"web":"http://www.facebook.com/MetropolisValladolid","lat":41.6506146,"type":"node","id":2567226375,"icon":"_litecoin"},{"web":"http://www.costaricavip.com","title":"Costa Rica VIP - Vacation Rentals - Tours - Car Rentals - Tourist Information","lon":-85.7825123,"lat":10.4310922,"type":"node","id":2567269320,"icon":"_litecoin"},{"city":"08844 hillsborough","addr":"Jill Court 5","title":"Chrono CrossFit","lon":-74.6392622,"phone":"16097591393","lat":40.4929282,"type":"node","id":2567363680,"icon":"sport_leisure_centre"},{"city":" Notre-Dame-des-Neiges","addr":"Ch. de la Greve Rioux ","title":"Le Fleuvorama","lon":-69.1199952,"web":"http://www.quebeclocationdechalets.com/Chalet.aspx?IDChalet=1706","lat":48.177347,"type":"node","id":2567466125,"icon":"accommodation_chalet"},{"web":"http://www.superioroutletpawnshop.com/","title":"Superior Outlet And Pawn Shop","lon":-77.4440465,"lat":37.4733551,"type":"node","id":2567480490,"icon":"_litecoin"},{"city":"09122 Cagliari","addr":"Via Col D'Echele ","title":"traduzioni inglese->italiano","country":"IT","lon":9.1034272,"email":"bitcoin.traduzioni@mauropili.it","lat":39.2332312,"type":"node","id":2567585111,"icon":"_litecoin"},{"web":"http://www.ciggyjuice.co.uk","title":"CiggyJuice Limited","lon":-1.4994221,"phone":"07970 627779","lat":50.9326296,"type":"node","id":2567991664,"icon":"_litecoin"},{"city":"V1Y9G6 Kelowna","addr":"Dickson Avenue ","title":"Kelowna InstaPrint","lon":-119.4591156,"phone":"250-860-3713","lat":49.8806406,"type":"node","id":2568843901,"icon":"_litecoin"},{"web":"http://discreetbullion.com/","title":"Discreet Bullion","lon":151.2086247,"lat":-33.8669506,"type":"node","id":2569255589,"icon":"_litecoin"},{"web":"http://www.hardwarefreedomday.nl/2013/Bitcoin-ATM.html","title":"Hardware Freedom Day 2013","lon":5.3759488,"lat":52.1624721,"type":"node","id":2569404649,"icon":"_litecoin"},{"title":"Tourist Apartment Duplex in Old Town 3","lon":24.7429656,"lat":59.437315,"type":"node","id":2569761794,"icon":"_litecoin"},{"city":"21000 Novi Sad","addr":"\u0408\u043e\u0441\u0438\u0444\u0430 \u041c\u0430\u0440\u0438\u043d\u043a\u043e\u0432\u0438\u045b\u0430 24","title":"Marcetin","lon":19.8346513,"phone":"+381638086813","web":"http://marcetin.com","lat":45.2755257,"type":"node","id":2570110713,"icon":"_litecoin"},{"city":"33014 Miami Lakes, FL","addr":"5979 NW 151st Street Suite #208","title":"Therapy Alliance Inc","lon":-80.2980197,"phone":"305-362-3300","web":"http://www.therapy-alliance.com","lat":25.9113364,"desc":"Pediatric Therapy Services. Speech, Occupational and Physical therapy","type":"node","id":2570898921,"icon":"_litecoin"},{"web":"https://www.etsy.com/listing/169395177/archangel-michael-wings-and-sword?ref=shop_home_active","title":"the silver sprue","lon":-109.8232348,"lat":31.9229944,"type":"node","id":2570970552,"icon":"shopping_jewelry"},{"city":"28844 Villadossola","addr":"Via Novello Bianchi 139","title":"Mood snc","lon":8.2615839,"phone":"+39 3342544555","web":"http://moodsnc.com/","lat":46.0605954,"desc":"Web and marketing Agency","type":"node","id":2571245485,"icon":"_litecoin"},{"city":"18707 Mountain Top","addr":"North Mountain Boulevard 108","title":"NEPA Geeks","lon":-75.8805227,"phone":"+1 570 474 5100","web":"https://www.nepageeks.com","lat":41.1687281,"type":"node","id":2571654670,"icon":"shopping_computer"},{"city":"09313 Vilnius","addr":"Lvovo g. 9","title":"Chili Studio apartment for rent for 2 people in Vilnius","lon":25.2841828,"web":"http://www.adormo.com/en/Chili/5179","lat":54.6946977,"type":"node","id":2572568027,"icon":"_litecoin"},{"city":" Playa Del Carmen","addr":"Paseo Xaman-Ha 10","title":"Casa Bella Vida holiday house","lon":-87.0800742,"web":"http://www.adormo.com/en/Casa-Bella-Vida/673","lat":20.6194125,"type":"node","id":2573524311,"icon":"_litecoin"},{"city":" Tulum","addr":"Geminis Sur ","title":"Villas Geminis condos for rent","lon":-87.4559191,"web":"http://www.adormo.com/en/VILLAS-GEMINIS/1352","lat":20.2126915,"type":"node","id":2573530394,"icon":"_litecoin"},{"city":" St. Julians","addr":"Triq Mikiel Ang Borg ","title":"Tourist Apartment in St. Julian's","lon":14.4899746,"web":"http://www.adormo.com/en/Apartment-in-St-Julians/2918","lat":35.9186922,"type":"node","id":2573554819,"icon":"_litecoin"},{"city":"98039 Taormina","addr":"Via Naumachie ","title":"C\u00e1 Nova apartment for short term rent","lon":15.287912,"web":"http://www.adormo.com/en/Ca-nova/2496","lat":37.8530713,"type":"node","id":2574064164,"icon":"_litecoin"},{"city":"11102 Jubail","addr":"King AbdulAziz st. ","title":"Ticket Computer Center","lon":49.6604864,"phone":"+966 55 718 2983","lat":27.007217,"type":"node","id":2574072438,"icon":"shopping_computer"},{"city":" Dakhla","title":"Rio Aguila Aventure Kite Camp","lon":-15.9696937,"web":"http://www.adormo.com/en//Rio-Aguila-Aventure-Kite-Camp/3714","lat":23.6619453,"type":"node","id":2574080548,"icon":"accommodation_camping"},{"city":"29620 Torremolinos","addr":"Calle Miami ","title":"Studio Carihuela Park Short term apartment","lon":-4.5034019,"web":"http://www.adormo.com/en/Studio-Carihuela-Park/6285","lat":36.6121706,"type":"node","id":2574088097,"icon":"_litecoin"},{"city":"30124 Venezia","addr":"Campo San Maurizio 2672","title":"Brand New Apartment for Short term","lon":12.3314232,"web":"http://www.veniceapartmentz.com/en/Brand-New/7130","lat":45.4325889,"type":"node","id":2574407851,"icon":"_litecoin"},{"city":"30123 Venezia","addr":"Sotoportego de le Carozze ","title":"Sotoportego tourist apartment","lon":12.3232243,"web":"http://www.veniceapartmentz.com/en/apartments/Italy/Venice/2-bedrooms/Sotoportego-Spacious-and-Clear/920","lat":45.4340785,"type":"node","id":2574412287,"icon":"_litecoin"},{"city":"30122 Venezia","addr":"Calle dei Orbi ","title":"Orbi Modern and Classic tourist apartment","lon":12.3420456,"web":"http://www.veniceapartmentz.com/en/Orbi-Modern-and-Classic/911","lat":45.4374021,"type":"node","id":2574421467,"icon":"_litecoin"},{"city":"30124 Venezia","addr":"Piazza San Marco ","title":"Orologio Do Mori tourist apartment","lon":12.3381018,"web":"http://www.veniceapartmentz.com/en/Orologio-Do-Mori/6336","lat":45.4336157,"type":"node","id":2574425725,"icon":"_litecoin"},{"city":"30124 Venezia","addr":"Pescaria San Bartolomeo 5146","title":"Rialto tourist apartment","lon":12.3358315,"web":"http://www.veniceapartmentz.com/en/Rialto/847","lat":45.4376072,"type":"node","id":2574436920,"icon":"_litecoin"},{"city":"30122 Venezia","addr":"Calle de le Vele ","title":"Torre tourist apartment","country":"IT","lon":12.3345733,"web":"http://www.veniceapartmentz.com/en/Torre/6195","lat":45.4412612,"type":"node","id":2574449045,"icon":"_litecoin"},{"city":"30121 Venezia","addr":"Calle Traghetto Vecchio ","title":"C\u00e1 del Moro tourist apartment","country":"IT","lon":12.3380222,"web":"http://www.veniceapartmentz.com/en/Ca-del-Moro/6808","lat":45.4407723,"type":"node","id":2574462124,"icon":"_litecoin"},{"city":"44-102 Gliwice","addr":"Stanis\u0142awa Ignacego Witkiewicza 75","title":"Dentysta.eu - Dentysta Gliwice lek. dent. Marcin Krufczyk","lon":18.6889893,"phone":"+48 500701500","web":"http://www.dentysta.eu","lat":50.3066636,"type":"node","id":2574823524,"icon":"health_hospital"},{"city":"55011 Altopascio","title":"Nardi e Banti imballaggi srl","lon":10.709964,"phone":"+39 0583 289258","lat":43.7910313,"desc":"Produzione di imballaggi in legno e pallets anche a norma ISPM15 per esportazione all'estero.","type":"node","id":2575758955,"icon":"_litecoin"},{"web":"http://www.studioharmony.com/","title":"Bie aff\u00e4r","lon":16.2146968,"lat":59.0891307,"type":"node","id":2576089838,"icon":"shopping_gift"},{"city":"33130 Miami, FL","addr":"W Flagler St 28","title":"League Against Aids Inc","lon":-80.1930339,"lat":25.7741517,"type":"node","id":2576132724,"icon":"_litecoin"},{"web":"http://bithost.us","addr":"Hosting | Webdesign | Translations ","title":"Bithost.us - Internet Services","lon":-58.5660944,"email":"hello@bithost.us","phone":"15 6262-1666","lat":-34.6076704,"type":"node","id":2576606927,"icon":"shopping_computer"},{"city":"54600 Lahore","addr":"Main Boulevard Gulberg ","title":"Appscinated Private Limited","lon":74.3525688,"phone":"+924235817048","web":"http://appscinated.com","lat":31.5311471,"type":"node","id":2577425030,"icon":"_litecoin"},{"city":"28855 Masera","title":"Ristorante del Divin Porcello","lon":8.3256154,"web":"http://divinporcello.it/","lat":46.1458502,"type":"node","id":2577599606,"icon":"food_restaurant"},{"city":"48341 Pontiac","addr":"247 South Telegraph Road .","title":"The Bronx Deli - We take BTC & LTC","lon":-83.3249224,"phone":"248-681-5555","lat":42.6278249,"type":"node","id":2577803561,"icon":"food_restaurant"},{"title":"Litecoin (Trading) Alim/Satim","lon":29.6951332,"phone":"+90 555 569 65 27","lat":40.7071834,"type":"node","id":2577926813,"icon":"_litecoin"},{"web":"http://digitalatoll.com","title":"Digitalatoll Solutions Group","lon":-121.3922744,"phone":"916-612-6904","lat":38.560606,"type":"node","id":2580279707,"icon":"_litecoin"},{"city":" \u6d4e\u5357","addr":"\u5c71\u5e08\u4e1c\u8def 21","title":"Heisenberg's","lon":117.0387918,"phone":"+86 18668994424","lat":36.6536022,"type":"node","id":2580622089,"icon":"food_restaurant"},{"city":"HG1 2PW Harrogate","addr":"Cornwall Road ","title":"Nowell Associates Limited","lon":-1.5512968,"phone":"+44 (0)1423 274955","web":"http://www.nowellassociates.co.uk","lat":53.9930138,"type":"node","id":2582768613,"icon":"_litecoin"},{"city":"27601 Raleigh","addr":"West Cabarrus Street 316","title":"Raleigh Puzzles - High quality wooden puzzles","lon":-78.6443711,"lat":35.774545,"type":"node","id":2582822612,"icon":"_litecoin"},{"city":"00193 Roma","addr":"Borgo Santo Spirito ","title":"Apartment Colosseo for 6 people short term rental","lon":12.4607578,"web":"http://www.adormo.com/en/Apartment-Colosseo-Colosseum/5946","lat":41.9015956,"type":"node","id":2583393513,"icon":"_litecoin"},{"city":"50121 Firenze","addr":"Via Fiesolana 23","title":"Accommodation \"La Fiesolana\" for 3 people short term rental","lon":11.2630842,"web":"http://www.adormo.com/en/Residenza-di-charme-La-Fiesolana/5580","lat":43.7725793,"type":"node","id":2584336120,"icon":"_litecoin"},{"city":"90210 Beverly Hills","addr":"North Camden Drive, Suite 200 468","title":"NuLegal","lon":-118.4051584,"phone":"310-817-0780","web":"http://nulegal.com/","lat":34.0698864,"type":"node","id":2584428604,"icon":"_litecoin"},{"city":"50121 Firenze","addr":"Via Fiesolana 23","title":"Charming Accommodation \"La Fiesolana\" for short term rental","lon":11.2635987,"web":"http://www.adormo.com/en/Residenza-di-charme-La-Fiesolana/5580","lat":43.7732453,"type":"node","id":2584445193,"icon":"_litecoin"},{"city":"75006 Paris","addr":"Rue du Cherche-Midi 56-60","title":"Studio \"Cherche Midi\" for short term rental for 2 people","lon":2.3250501,"web":"http://www.adormo.com/en/Cherche-Midi/2409","lat":48.8489312,"type":"node","id":2584447280,"icon":"_litecoin"},{"city":"75017 Paris","addr":"Rue Troyon 2-24","title":"Apartment Etoile Arc De Triomphe with 1 bedroom for 4 people","lon":2.2958503,"web":"http://www.adormo.com/en/Etoile-Arc-De-Triomphe/2383","lat":48.8754729,"type":"node","id":2584449091,"icon":"_litecoin"},{"city":"75001 Paris","addr":"Rue Bailleul ","title":"Apartment \"Louvre Paris 1\" with 2 bedrooms for short term rentals","lon":2.3415164,"web":"http://www.adormo.com/en/Louvre-Paris-1/2437","lat":48.8610771,"type":"node","id":2584450066,"icon":"_litecoin"},{"city":"80-837 Gda\u0144sk","addr":"Straganiarska 37a","title":"Apartment Traders Gate with 2 bedrooms for short term rental","lon":18.6576949,"web":"http://www.adormo.com/en/Apartment-Traders-Gate/3304","lat":54.3522125,"type":"node","id":2584450798,"icon":"_litecoin"},{"web":"http://www.adormo.com/en/Apartment-Spacious-Studio-In-The-Minsk-Centre/5899","addr":"\u041a\u0440\u0430\u0441\u043d\u0430\u044f \u0443\u043b\u0438\u0446\u0430 21\u0410","title":"Apartment rental","lon":27.5786039,"lat":53.9150647,"desc":"Spacious Studio apartment for short term rent","type":"node","id":2584452840,"icon":"_litecoin"},{"city":"01139 Vilnius","addr":"Sod\u0173 g. 3","title":"Apartment \"Sodu\" 2 bedrooms for short term rental","lon":25.2833701,"web":"http://www.adormo.com/en/Sodu-2-bedroom-apartment-up-to-8-people/5697","lat":54.6732781,"type":"node","id":2584458942,"icon":"_litecoin"},{"city":"31-044 Krak\u00f3w","addr":"Senacka 44","title":"Mint Apartment, studio for 4 people in Krakow","lon":19.9383678,"web":"http://www.adormo.com/en/Mint-Apartment/5593","lat":50.0577411,"type":"node","id":2584461260,"icon":"_litecoin"},{"web":"http://www.adormo.com/en/1-bedroom/Castle-And-Charles-Bridge-View-Apartment/1016","title":"Castle And Charles Bridge View Apartment","lon":14.41431,"lat":50.0788107,"type":"node","id":2584461743,"icon":"_litecoin"},{"city":"45314 Cedarville","addr":"North Main Street 85","title":"Stoney Creek Roasters","lon":-83.8074425,"phone":"+1 937 697 5200","web":"http://www.stoneycreekroasters.com","lat":39.7419629,"type":"node","id":2584483099,"icon":"food_cafe"},{"web":"http://www.keultech.de","addr":"Wildgansweg 4","title":"KeulTech PC Service","lon":9.4904112,"phone":"+49173 6390736","lat":52.4698698,"type":"node","id":2585558215,"icon":"_litecoin"},{"city":"IL, 60126 Elmhurst","addr":"Clinton Avenue 165","title":"(the) Anvilry","lon":-87.9273135,"email":"theanvilry@gmail.com","web":"http://www.etsy.com/shop/theAnvilry","lat":41.9007821,"type":"node","id":2585873809,"icon":"_litecoin"},{"web":"http://tappcandy.com","title":"TappCandy Ltd","lon":-1.0847187,"phone":"0113 815 2222","lat":53.960756,"type":"node","id":2586478495,"icon":"_litecoin"},{"city":"25-414 Kielce","addr":"Warszawska 150 lokal 12","title":"MAjewscyFoto - studio fotograficzne","lon":20.6472577,"phone":"+48 534534469","web":"http://www.majewscyfoto.pl","lat":50.8896558,"type":"node","id":2586986649,"icon":"_litecoin"},{"city":"35015 Galliera Veneta","addr":"Via Roma 113a","title":"Digitalkey.it","lon":11.8277187,"lat":45.663152,"type":"node","id":2587373492,"icon":"shopping_computer"},{"city":"26100 Weifang","addr":"\u4e1c\u98ce\u897f\u8857 D\u014dngf\u0113ng d\u014dngji\u0113 27","title":"Charlie McRae Photography","lon":119.1058626,"phone":"13465725196","web":"http://charliemcrae.com","lat":36.7137657,"desc":"Photography and fine art prints","type":"node","id":2587463864,"icon":"_litecoin"},{"city":"L8V 4H8 Hamilton","addr":"Upper Gage Avenue 371","title":"Serious Monkey Web Design","lon":-79.8358581,"phone":"19053900635","web":"http://seriousmonkey.ca","lat":43.2349177,"type":"node","id":2588339791,"icon":"_litecoin"},{"city":"30125 Venezia","title":"Violet tourist apartment","country":"IT","lon":12.3240865,"web":"http://www.veniceapartmentz.com/en/Violet/7187","lat":45.4365108,"type":"node","id":2589222556,"icon":"_litecoin"},{"city":"1100 Wien","addr":"Landgutgasse 7/6","title":"Manuel Fallmann","lon":16.3780132,"web":"http://www.manuelfallmann.com","lat":48.1812332,"type":"node","id":2589248198,"icon":"_litecoin"},{"city":"30542 Flowery Branch","addr":"Winder Hwy Ste M 360 3446","title":"Vandelay Web","lon":-83.8651086,"phone":"(678) 883-8WEB","web":"http://vandelayweb.com","lat":34.2236894,"type":"node","id":2591191241,"icon":"_litecoin"},{"city":"67401 T\u0159eb\u00ed\u010d","addr":"Hasskova 4","title":"Anna Kr\u0161kov\u00e1 - Sal\u00f3n L\u00e9\u010div\u00fd dotek","lon":15.8784906,"web":"http://lecivydotek.wz.cz/","lat":49.2151059,"type":"node","id":2591617504,"icon":"_litecoin"},{"web":"http://photo.wikna.com","title":"SP \u0424\u043e\u0442\u043e\u0421\u0430\u043b\u043e\u043d","lon":35.1649471,"phone":"+38 099 148 80 87","lat":47.8259907,"type":"node","id":2592596153,"icon":"_litecoin"},{"city":" Marsalforn","addr":"Triq Il Qbajjar ","title":"Abacus apartment B 1bedroom","lon":14.2591686,"web":"http://www.adormo.com/en/3225","lat":36.0707612,"type":"node","id":2593631780,"icon":"_litecoin"},{"city":" Izmir","addr":"D505 ","title":"Karaburun apart houses 1st floor","lon":26.5166553,"web":"http://www.adormo.com/en//2887","lat":38.6334202,"type":"node","id":2593634730,"icon":"_litecoin"},{"city":" Bu\u0219teni","addr":"Aleea Silva 52","title":"Tourist Apartment Luxor Bu\u0219teni","lon":25.5255678,"web":"http://www.adormo.com/en/6159","lat":45.4096758,"type":"node","id":2593638278,"icon":"_litecoin"},{"city":"2422 nybergsund","addr":"elvdalsvegen 18","title":"Holiday house- Elvdalsvegen 18, nybergsund, Norway","lon":12.326135,"phone":"+31613914809","web":"http://ski-norway.webs.com/","lat":61.2581025,"type":"node","id":2593897568,"icon":"accommodation_bed_and_breakfast"},{"web":"http://magdaleenderooytaen.webs.com/","addr":"Rederijklaan ","title":"Gallerie De Rooy - Taen","lon":5.5849589,"lat":51.4299162,"type":"node","id":2593952516,"icon":"_litecoin"},{"city":"DN31 2PW Grimsby","addr":"Earl Street 80","title":"GY Electrical Contrators","lon":-0.0914822,"phone":"07590639164","lat":53.5669718,"type":"node","id":2594351027,"icon":"_litecoin"},{"city":" Corralejo","addr":"Beach Walk ","title":"Villa \"Los Remos\"","lon":-13.8520316,"web":"http://www.adormo.com/en/Los-Remos/388","lat":28.7267923,"desc":"Villa for short term rent","type":"node","id":2594788926,"icon":"_litecoin"},{"city":"3812 PH Amersfoort","addr":"Kleine Koppel 40","title":"Education Freedom Day 2014","lon":5.3760144,"web":"http://www.educationfreedomday.nl/","lat":52.1624544,"type":"node","id":2594966137,"icon":"_litecoin"},{"city":"3001 Barquisimeto","addr":"Principal 16","title":"Multiservicios Dur\u00e1n","lon":-69.3293079,"phone":"+58 4121697257","lat":10.1053954,"desc":"Multiservicios, electricidad, plomeria, reparacion de electrodomesticos, compuadoras, linea blanca, neveras, lavadoras y mas.","type":"node","id":2597119232,"icon":"_litecoin"},{"city":"36017 Karlovy Vary","addr":"Dvo\u0159\u00e1kova ","title":"Neologic - reklamn\u00ed agentura","lon":12.8340128,"phone":"+420 604 139 819","web":"http://neologic.cz","lat":50.2415199,"type":"node","id":2597299375,"icon":"_litecoin"},{"web":"http://www.wagenitech.com","title":"Wageni Technologies","lon":36.8219701,"phone":"+254731980000","lat":-1.2818045,"type":"node","id":2597524871,"icon":"_litecoin"},{"city":"22-400 Zamo\u015b\u0107","addr":"Ormia\u0144ska 3","title":"Kancelaria Prawnicza Radca Prawny Rados\u0142aw Grabalski","lon":23.2549676,"phone":"697616602","web":"http://prawnik-zamosc.biz/","lat":50.7171085,"type":"node","id":2598162205,"icon":"_litecoin"},{"city":"4001 Durban","title":"LM Econ - Economic research","lon":30.9991757,"web":"http://lmecon.com","lat":-29.8594365,"type":"node","id":2599915373,"icon":"_litecoin"},{"city":"37869 Sneedville","addr":"Tazewell Hwy 2444","title":"Appalachian Wellness Center","lon":-83.2536752,"phone":"423-300-0786","web":"http://www.appalachianwellnesscenter.com","lat":36.501829,"desc":"Only licensed Acupuncturist and licensed Massage Therapist in Hancock County, TN and many surrounding counties.","type":"node","id":2600833590,"icon":"_litecoin"},{"city":"25801 Beckley","addr":"Robert C Byrd Drive 1934","title":"Raleigh Tile","lon":-81.217062,"phone":"+1 304 2529226","web":"http://www.raleightile.com","lat":37.7543058,"type":"node","id":2600858539,"icon":"_litecoin"},{"city":"91316 Encino","addr":"Ventura Boulevard 17401","title":"Petrock Hotel and Spa","lon":-118.5129196,"phone":"818.817.9451","lat":34.1614905,"type":"node","id":2600858788,"icon":"accommodation_hotel"},{"city":"85209 Mesa","addr":"East Southern Avenue 7107","title":"Tigers Lair Martial Arts Academy","country":"US","lon":-111.6783919,"phone":"480-357-2299","web":"http://tigerslairaz.com","lat":33.3929195,"desc":"Offers Brazillian Jiu Jitsu, Karate, and Muay Thai Classes.","type":"node","id":2600881711,"icon":"_litecoin"},{"city":" gangnam","addr":"738-2 \uc5ed\uc0bc\ub85c (Yeoksamno) ","title":"HanaPay","lon":127.0368397,"phone":"+82 70 4680 1315","web":"http://koincoin.com","lat":37.4986087,"type":"node","id":2600896582,"icon":"_litecoin"},{"web":"http://unihost.com","title":"Unihost.com","lon":35.1718547,"phone":"+380 442 215976, +7 499 4033358","lat":47.8172674,"desc":"\u0425\u043e\u0441\u0442\u0438\u043d\u0433 \u0442\u0430 \u0440\u0435\u0454\u0441\u0442\u0440\u0430\u0446\u0456\u044f \u0434\u043e\u043c\u0435\u043d\u0456\u0432","type":"node","id":2601015584,"icon":"_litecoin"},{"city":" Vancouver","addr":"Howe St. Vancouver 900","title":"Bitbulls - (Coinkite Terminal Location)","country":"CA","lon":-123.1225589,"web":"https://coinkite.com/terminals/cfb7e774-0f80-4e26-a4ad-c17b59ecba76","lat":49.2806931,"type":"node","id":2601356374,"icon":"_litecoin"},{"city":"80230 Denver","addr":"East Academy Blvd 7581","title":"JetVizor - Private Jet & Helicopter Charters","lon":-104.8967493,"web":"http://www.jetvizor.com","lat":39.7203501,"type":"node","id":2601983350,"icon":"_litecoin"},{"city":"37064 Franklin","addr":"Ploughmans Bend Drive 565","title":"Music City Bitcoins","lon":-86.8720355,"phone":"+1 615 330 5044","web":"http://www.musiccitybitcoins.com","lat":35.9368682,"type":"node","id":2602155022,"icon":"_litecoin"},{"city":"200072 Shanghai","addr":"\u67f3\u8425\u8def No. 20, 205","title":"Shanghai Yubi Digital Technology (Video Production)","lon":121.4622796,"phone":"+86 21 6630 1433","lat":31.2723654,"type":"node","id":2602423665,"icon":"_litecoin"},{"city":"2511 AA Den Haag","addr":"Hofweg 1-a","title":"Ethereum and Bitcoin Meetup Caf\u00e9 Dudok The Hague","lon":4.3118093,"web":"http://bitcoinobserver.com/Meetup/Den-Haag.html","lat":52.078497,"type":"node","id":2603947453,"icon":"_litecoin"},{"city":"03101 Liptovsk\u00fd Mikul\u00e1\u0161","addr":"Priemyseln\u00e1 1/2034","title":"Triton Tech, s.r.o.","lon":19.6352318,"phone":"+421 948 272 142","web":"http://www.tritontech.sk","lat":49.0742738,"type":"node","id":2604386816,"icon":"_litecoin"},{"title":"Sterling Painting & Restorations Ltd","lon":-113.8042445,"phone":"403-392-7091","lat":52.2623859,"type":"node","id":2605562866,"icon":"_litecoin"},{"web":"http://muzycznakreacja.pl","title":"Studio Nagra\u0144 Muzyczna Kreacja 2.0","lon":17.1084694,"phone":"+48 783 308 442","lat":51.1081562,"type":"node","id":2605874241,"icon":"_litecoin"},{"web":"http://svitled.net/","title":"\u0421\u0432\u0456\u0442 \u041b\u0435\u0434","lon":30.4509051,"phone":"+380988690549","lat":50.5209299,"type":"node","id":2606073712,"icon":"_litecoin"},{"city":"03301 Concord","addr":"Bridge Street 22","title":"Law Offices of Martin & Hipple, PLLC","lon":-71.534161,"phone":"+1-603-856-0202","web":"http://www.nhlegalservices.com/","lat":43.2081276,"type":"node","id":2606512576,"icon":"_litecoin"},{"city":"07001 Palma de Mallorca","addr":"Pla\u00e7a del Rosari 2","title":"Desarrollo y p\u00e1ginas web - axel-k.com","lon":2.6482184,"web":"http://www.axel-k.com","lat":39.569428,"type":"node","id":2608040982,"icon":"_litecoin"},{"city":"3812 PH Amersfoort","addr":"Kleine Koppel 40","title":"Bitcoin University at University of Amersfoort","lon":5.376011,"web":"http://bitcoinobserver.com/news/2014-01-17-12-25-Bitcoin-University-FabLab-Amersfoort.html","lat":52.1624392,"type":"node","id":2608197788,"icon":"_litecoin"},{"city":"1219 Laze v Tuhinju","addr":"Mali Hrib 5b","title":"Berlic d.o.o. Kamnik","lon":14.7735259,"phone":"+386 41 618342;+386 1 8347315","web":"http://www.tende-berlic.com","lat":46.2195041,"type":"node","id":2608601846,"icon":"_litecoin"},{"city":"10004 New York","addr":"Broad Street 40","title":"Bitcoin Center NYC","lon":-74.0115846,"web":"http://bitcoincenternyc.com","lat":40.7059776,"type":"node","id":2609302207,"icon":"_litecoin"},{"web":"http://dareeo.hu","title":"PSP & Wii Szerv\u00edz","lon":18.2322697,"email":"dareeo@gmail.com","phone":"0036202161349","lat":46.0710906,"type":"node","id":2609396345,"icon":"_litecoin"},{"title":"Tecnico Informatico","lon":13.2879241,"email":"lagiv84@alice.it","lat":38.0808362,"desc":"Assemblaggio PC, aggiornamenti e pulizia hardware/software, internet, alfabetizzazione anche per bambini ed anziani, ottimizzazione prestazioni, consulenze e soluzioni per profili pubblici nel web, creazione/spostamento postazioni, consulenza Bitcoin","type":"node","id":2610396198,"icon":"_litecoin"},{"city":"5166 O'Sullivan Beach","addr":"Galloway Road 51A","title":"Dr. Michelle Emmerson","lon":138.4793328,"phone":"+61 8 8440 5200","lat":-35.1247345,"type":"node","id":2610679996,"icon":"_litecoin"},{"city":"77598 Webster","addr":"West Bay Area Boulevard 2507","title":"Christian Coin & Jewelry","lon":-95.1612553,"phone":"281-889-8246","web":"http://www.christiancoinandjewelry.com","lat":29.5317497,"desc":"Buy & Sell Gold & Silver, Accept Bitcoin and Litecoin","type":"node","id":2611776121,"icon":"shopping_jewelry"},{"city":"43-600 Jaworzno","addr":"\u015awi\u0119tego Wojciecha 115e","title":"ACMobilnie Krystian Kolarz","lon":19.2719457,"email":"info@acmobilnie.pl","phone":"+48 603 672 001","web":"http://www.acmobilnie.pl","lat":50.2169841,"type":"node","id":2611789515,"icon":"shopping_car_repair"},{"web":"http://bixbite.org","title":"Devu Design Ltd","lon":-0.165919,"lat":51.4240439,"type":"node","id":2611795632,"icon":"_litecoin"},{"city":"640 \u6597\u516d\u5e02 (Douliou)","addr":"\u96f2\u6797\u8def\u4e8c\u6bb5 (Yunlin Rd. 2 Sec.) 640","title":"KPC\u96fb\u8166\u5de5\u4f5c\u5ba4","lon":120.5250587,"web":"https://www.facebook.com/KPCstudio","lat":23.6989574,"type":"node","id":2611843401,"icon":"shopping_computer"},{"city":"54750 Cuautitlan Izcalli","addr":"Oyameles O ","title":"Vosens","lon":-99.2001973,"web":"https://bitcoinmexi.co/negocio/vosens/","lat":19.6472464,"type":"node","id":2612398811,"icon":"_litecoin"},{"city":"28012 Madrid","addr":"Calle del Pr\u00edncipe 29-35","title":"Hemingway Santa Ana with 3 bedrooms","lon":-3.7002218,"web":"http://www.adormo.com/en/Hemingway-Santa-Ana/663","lat":40.4141794,"desc":"Apartment for short term rent","type":"node","id":2612952805,"icon":"_litecoin"},{"city":"29007 M\u00e1laga","addr":"Calle Enrique Scholtz 2","title":"Apartment with circular bedroom","lon":-4.4287168,"web":"http://www.adormo.com/en/Apartment-with-circular-bedroom/6367","lat":36.720424,"desc":"Apartment for short term rent","type":"node","id":2612956108,"icon":"_litecoin"},{"city":"29660 Marbella","addr":"Urbanizacion Nueva Andalucia Villa Marina 12","title":"Villa Marina 2 bedrooms","lon":-4.9623818,"web":"http://www.adormo.com/en/Villa-Marina/6324","lat":36.4860218,"desc":"Villa for short term rent","type":"node","id":2612961186,"icon":"_litecoin"},{"city":"97215 Portland","addr":"Southeast Belmont Street 4531","title":"Law Offices of Andrew C. DeWeese, P.A.","lon":-122.6155151,"email":"deweeselaw@gmail.com","phone":"5033434112","lat":45.5168496,"type":"node","id":2613080889,"icon":"_litecoin"},{"city":"03431 Keene, New Hampshire","addr":"63 Emerald Street #610 ","title":"LRN.FM","lon":-72.2805495,"web":"http://lrn.fm","lat":42.9310759,"type":"node","id":2613445108,"icon":"_litecoin"},{"city":"03431 Keene, New Hampshire","addr":"63 Emerald Street #610 ","title":"Free Talk Live","lon":-72.280616,"web":"http://freetalklive.com","lat":42.9310713,"type":"node","id":2613452009,"icon":"_litecoin"},{"city":" Ciudad Aut\u00f3noma de Buenos Aires","addr":"C\u00e1tulo Castillo 3072","title":"KEANTS - Web & Mobile Development","lon":-58.4072377,"email":"info@keants.com","web":"http://www.keants.com","lat":-34.6354615,"desc":"Usamos Ruby on Rails, bases NoSQL (MongoDB, Redis), SQL (Postgresql, MySQL), HTML5, CSS3, JavaScript, Jquery, Backbone y PhoneGap.  Desplegamos nuestros desarrollos utilizando infrastructura en la nube como Amazon S3, EC2, Route53, Heroku y Mandrill.","type":"node","id":2613600500,"icon":"_litecoin"},{"city":"29630 Benalm\u00e1dena","addr":"Camino de Dona Maria 24-52","title":"Benalmadena Studio","lon":-4.5360479,"web":"http://www.adormo.com/en/Benalmadena-Studio/6731","lat":36.5863834,"desc":"Apartment for short term rent","type":"node","id":2614129171,"icon":"_litecoin"},{"city":"03501 Benidorm","addr":"Avinguda De Ruzafa 2","title":"Two bedrooms Apartment Parque Torresol","lon":-0.1125457,"web":"http://www.adormo.com/en/Apartment-Parque-Torresol-Benidorm/4368","lat":38.5397831,"desc":"Apartment for short term rent","type":"node","id":2614129880,"icon":"_litecoin"},{"city":"29620 Torremolinos","addr":"Calle Miami 9","title":"Studio Carihuela Palace","lon":-4.5040831,"web":"http://www.adormo.com/en/Studio-Carihuela-Palace/6282","lat":36.6107929,"desc":"Apartment for short term rent","type":"node","id":2614134904,"icon":"_litecoin"},{"city":"6000 Ohrid","addr":"Metodi Patce 10","title":"Villa Mal Sveti Kliment","lon":20.7969076,"phone":"+389 46250655","web":"http://vilamalsvetikliment.com/","lat":41.1126572,"type":"node","id":2614590053,"icon":"accommodation_bed_and_breakfast"},{"city":"83100 Avellino","addr":"Via Vasto 1","title":"L'Imbianchino - Painter","lon":14.7897205,"phone":"+39 334 982 3833","lat":40.9153398,"desc":"Tinteggiatura ambiente Ristrutturazione persiane Tinteggiatura ringhiere Progettazione d'interni Piccoli lavori di muratura. Preventivi senza impegni. Si accettano pagamenti in Bitcoin con cambio fisso all'ultimo picco stabilito dalla divisa.","type":"node","id":2614824113,"icon":"_litecoin"},{"web":"https://dl.dropboxusercontent.com/u/5013076/Herculano/Herculano.htm","title":"Aluga","lon":-9.1442753,"email":"jorge.aluga@yahoo.com","phone":"219834794","lat":38.6501589,"type":"node","id":2615567091,"icon":"_litecoin"},{"web":"http://www.imoveisaltamedia.com/pt/contactos.htm","title":"Aluga","lon":-9.0685938,"email":"jorge.aluga@yahoo.com","phone":"219834794","lat":38.6590983,"type":"node","id":2615585549,"icon":"_litecoin"},{"web":"http://dl.dropboxusercontent.com/u/5013076/Herculano/Herculano.htm","title":"Aluga","lon":-9.1669324,"email":"jorge.aluga@yahoo.com","phone":"219834794","lat":38.8143138,"type":"node","id":2615681810,"icon":"_litecoin"},{"city":" Lisboa","addr":"Rua dos Rem\u00e9dios 100","title":"Alfama 1 bedroom apartment","lon":-9.1255931,"web":"http://www.adormo.com/en/Alfama-1---for-2-4-people/3197","lat":38.713396,"desc":"Apartment for short term rent","type":"node","id":2615707612,"icon":"_litecoin"},{"city":"13202 Syracuse","addr":"Harrison Street ","title":"Salt City Miners LLC","lon":-76.1504985,"phone":"315-533-COIN (2646)","web":"https://saltcityminers.com/","lat":43.0445277,"type":"node","id":2615853973,"icon":"_litecoin"},{"web":"http://bogohack.co","title":"Bogohack","lon":-74.0732105,"phone":"+51 5108039","lat":4.6254288,"type":"node","id":2616072252,"icon":"_litecoin"},{"web":"http://bisazza.pl","title":"Pracownia Artystyczna mozaik Bisazza","lon":17.0634396,"phone":"+48793919157","lat":51.1098134,"type":"node","id":2616083291,"icon":"_litecoin"},{"city":"BS6 5QA Bristol","addr":"Picton Street ","title":"Your Sushi","lon":-2.5887853,"phone":"+44 (0)20 3287 2299","web":"http://www.yoursushi.co.uk/","lat":51.4652795,"type":"node","id":2616940248,"icon":"_litecoin"},{"city":"61244 Taibao City","addr":"Chunzhu 149","title":"Rueitai \u745e\u6cf0\u5275\u65b0\u79d1\u6280","lon":120.3299889,"web":"http://www.rueitai.com","lat":23.4542681,"desc":"ERP on Cloud","type":"node","id":2616958181,"icon":"_litecoin"},{"city":"73320 Tignes Val-Claret","addr":"Rue du Val Claret ","title":"Appartment for rent in first-class ski-area","lon":6.90012,"email":"tignesBTC@gmail.com","lat":45.455051,"type":"node","id":2617757888,"icon":"_litecoin"},{"web":"http://wtfbuild.com/","title":"\u041f\u0440\u043e\u0435\u043a\u0442\u0438\u0440\u043e\u0432\u0430\u043d\u0438\u0435 \u0438 \u043f\u043e\u0441\u0442\u0440\u043e\u0439\u043a\u0430","lon":26.6603384,"lat":50.328775,"type":"node","id":2617885964,"icon":"_litecoin"},{"city":"SO15 7PQ Southampton","addr":"Wilton Crescent 28","title":"Cars for Crypto","country":"GB","lon":-1.4192287,"web":"http://bit.ly/carsforcrypto","lat":50.9248447,"type":"node","id":2618169149,"icon":"_litecoin"},{"city":"10409 Berlin","addr":"Erich-Weinert-Stra\u00dfe 143","title":"Modern and Nice Apartment with 1 bedroom","country":"DE","lon":13.4398535,"web":"http://www.adormo.com/en/Modern-and-Nice-Apartment-in-Berlin/2624","lat":52.5441245,"desc":"Apartment for short term rent","type":"node","id":2618221529,"icon":"_litecoin"},{"web":"http://www.capitolhillconsultants.com/","title":"Capitol Hill Consultants LLC","lon":-83.6856035,"lat":43.0230298,"type":"node","id":2618807990,"icon":"_litecoin"},{"web":"http://www.capitolhillconsultants.com/","title":"Capitol Hill Consultants LLC","lon":-104.9722902,"lat":39.7409812,"type":"node","id":2618817607,"icon":"_litecoin"},{"web":"http://www.capitolhillconsultants.com/","title":"Capitol Hill Consultants LLC","lon":-122.4038197,"lat":37.7921625,"type":"node","id":2618818266,"icon":"_litecoin"},{"city":" Warszawa","addr":"Aleje Jerozolimskie ","title":"Apartment \"Studio Kenya\" for 4 poeple","lon":21.0127247,"web":"http://www.adormo.com/en/Apartment-Studio-Kenya/3395","lat":52.2295026,"desc":"Apartment for short term rental","type":"node","id":2619300356,"icon":"_litecoin"},{"city":"28001 Madrid","addr":"Calle de Goya 7","title":"Dr Emilio Santos - Ginecolog\u00eda","lon":-3.6887819,"lat":40.4257079,"desc":"Gynecologist, pregnancy, 4D ultrasound, birth in water, birth at home","type":"node","id":2619644037,"icon":"_litecoin"},{"city":"8384 Minihof-Liebau","addr":"Windisch-Minihof 195/1","title":"Lederpflege privat","lon":16.0910493,"web":"http://lederpflegecreme.wordpress.com","lat":46.8921194,"type":"node","id":2619651639,"icon":"_litecoin"},{"city":"25010060 Duque de Caxias","addr":"Rua Genaro Lomba 32","title":"ESC - Energic Sport Center Suplementos","lon":-43.3125593,"phone":"+55 21 36521318","lat":-22.7894645,"type":"node","id":2619898637,"icon":"_litecoin"},{"web":"http://www.cubeinspire.com","title":"Cube Inspire","lon":4.3367509,"phone":"+32 488 412 989","lat":50.8260903,"type":"node","id":2619918711,"icon":"_litecoin"},{"city":"N15 6RH London","addr":"Overbury Road ","title":"Henry Electrical Services","lon":-0.0866487,"phone":"+447949774312","lat":51.5757983,"desc":"Your local electrical and fire alarm systems contractor accepting bitcoin! Work is undertaken within london areas.","type":"node","id":2620010378,"icon":"_litecoin"},{"web":"http://unifiaccess.com","title":"Unifi Access","lon":-155.6772371,"lat":20.023827,"type":"node","id":2620348755,"icon":"_litecoin"},{"web":"http://www.ecoin.at","title":"Ecoin.at","lon":5.6767107,"lat":58.9111757,"desc":"Digital currency map service","type":"node","id":2620921011,"icon":"_litecoin"},{"city":"59160 Motala","addr":"J\u00e4rnv\u00e4gsgatan 46","title":"Sadhana Yoga & Meditationsskola, Gongiversum","lon":15.0569737,"web":"http://www.gongiversum.com","lat":58.5494052,"type":"node","id":2620960653,"icon":"sport_leisure_centre"},{"city":"1170 Wien","addr":"Alszeile 69","title":"Apartment with 1 bedroom for 2 people","lon":16.3075074,"web":"http://www.adormo.com/en/Apartment-2-Persons/6355","lat":48.227743,"desc":"Apartment for short term rent in  Vienna","type":"node","id":2621891762,"icon":"_litecoin"},{"city":"08038 barcelona","addr":"Carrer dels Alts Forns ","title":"Yoigo Electroutlet","lon":2.1419416,"web":"http://yoigobarcelona.com","lat":41.3595371,"type":"node","id":2621989773,"icon":"_litecoin"},{"city":"83100 Avellino","addr":"Via Sottotenente Giovanni Iannaccone 3/1","title":"Psicologa psicoterapeuta cognitivo-comportamentale- Simona Guglielmucci","lon":14.7838057,"phone":"+39 347 589 4998","lat":40.9155356,"type":"node","id":2622372991,"icon":"_litecoin"},{"city":"00175 Roma","addr":"Via Quintilio Varo 51","title":"Psicologa psicoterapeuta cognitivo-comportamentale Dott.sa Simona Guglielmucci","lon":12.5627506,"phone":"+39 347 589 4998","lat":41.8550212,"type":"node","id":2622393444,"icon":"_litecoin"},{"city":"1716 Libertad","addr":"Mahatma Ghandi 1075","title":"Crayones en tiza Nyree","lon":-58.6704347,"email":"astartea.liska@gmail.com tizas.nyree@gmail.com","phone":"15-3279-4548","web":"https://www.facebook.com/Nyree.colores http://astartealiska.wix.com/nyree","lat":-34.6854029,"desc":"Nyree es una tintura temporaria en tiza hecha con colorantes naturales, que se va con el primer lavado, es de f\u00e1cil aplicaci\u00f3n y no es t\u00f3xico.","type":"node","id":2625506600,"icon":"_litecoin"},{"web":"http://www.prezenta.cz","title":"Prezenta Flags and Displays","lon":15.2267376,"phone":"+420 775 54 33 55","lat":49.4270415,"type":"node","id":2625746888,"icon":"_litecoin"},{"city":"03431 Keene, New Hampshire","addr":"63 Emerald St. #369 ","title":"Free Press Publications","lon":-72.2804912,"phone":"202-709-4377","web":"http://FPP.cc","lat":42.9310769,"type":"node","id":2626397495,"icon":"_litecoin"},{"city":"Kgn 10 Kingston","addr":"Hagley Park Road 6","title":"Cryptographic Data Processors Ltd.","lon":-76.8007825,"lat":18.0097762,"type":"node","id":2626499022,"icon":"_litecoin"},{"city":"19103 Philadelphia","addr":"Market Street 1900","title":"Bitcoin Properties","lon":-75.1717532,"web":"http://www.bitcoinprops.com/","lat":39.9534177,"type":"node","id":2627770514,"icon":"_litecoin"},{"city":"40505 Lexington","addr":"East Loudon Avenue 199","title":"Lexington Lexington LLC","lon":-84.4788138,"phone":"606-232-0208","web":"http://www.lexingtonlexington.com","lat":38.0552711,"type":"node","id":2628048304,"icon":"_litecoin"},{"web":"http://savvydesigner.net","title":"Savvy Designer - graphic design services","lon":14.5928513,"lat":50.0381507,"type":"node","id":2628914481,"icon":"_litecoin"},{"city":" Santo Domingo","addr":"Avenida Nu\u00f1ez de C\u00e1ceres ","title":"Bayonet Robles & Asoc.","lon":-69.9581359,"phone":"1-809-532-1814","web":"http://www.bayonetrobles.com","lat":18.4637827,"type":"node","id":2628991874,"icon":"_litecoin"},{"city":"851 01 Bratislava","addr":"Kop\u010dianska 10","title":"Geefu","lon":17.0975714,"phone":"+421 944 27 46 27","web":"http://geefu.net/bitcoin","lat":48.1215597,"type":"node","id":2630095340,"icon":"_litecoin"},{"city":"T2T0A7;T2T 0A7 Calgary","addr":"17 Avenue Sw;17 Avenue SW 1019;102-1019","title":"Bitcoin Brains;Bitcoin ATM","lon":-114.0854268,"phone":"587-349-0355","web":"http://www.bitcoinbrains.com","lat":51.0375373,"desc":"Buy and sell Bitcoins here (located inside Waves Coffee)","type":"node","id":2631857892,"icon":"money_atm"},{"title":"Massage","lon":142.156554,"phone":"0401562945","lat":-34.1712655,"desc":"Remedial, Deep Tissue, Hot Stone, Pregnancy, Relaxation Massage for offer, Payment in regular currency is accepted along with Bitcoin, Will trade for Current Market value through Coinjar system  Please call for an appointment","type":"node","id":2631936182,"icon":"_litecoin"},{"city":" Belgrade","addr":"\u0417\u0435\u0442\u0441\u043a\u0430 ","title":"Apartment \"Bohemian Quartier Z-y\"","lon":20.4646865,"web":"http://www.adormo.com/en/Belgrade-Bohemian-Quartier-Z-y/2670","lat":44.8171682,"type":"node","id":2632011558,"icon":"_litecoin"},{"city":"7311 WJ Apeldoorn","addr":"Hofstraat 117A","title":"Tasty Apeldoorn","lon":5.9633274,"phone":"055-3030972","web":"http://www.tastyapeldoorn.nl","lat":52.2116984,"type":"node","id":2632211238,"icon":"food_cafe"},{"city":"75018 Paris","addr":"Rue de Clignancourt ","title":"Apartment \"Montmartre Paris18\" with 1 bedrooms for short term rentals","lon":2.3477636,"web":"http://location-paris.mattia.fr","lat":48.8877864,"type":"node","id":2632433125,"icon":"_litecoin"},{"web":"http://www.dacha-v-malinovke.ru","title":"\u041c\u0430\u043b\u0438\u043d\u043e\u0432\u043a\u0430","lon":30.3317309,"email":"info@dacha-v-malinovke.ru","phone":"+7 (812) 627-60-37;+7 (952) 276-34-17;+7 (904) 601-06-10","lat":60.0149367,"desc":"\u041f\u0440\u043e\u0434\u0430\u0436\u0430 \u0437\u0435\u043c\u0435\u043b\u044c\u043d\u044b\u0445 \u0443\u0447\u0430\u0441\u0442\u043a\u043e\u0432","type":"node","id":2632796452,"icon":"_litecoin"},{"title":"\u041c\u0430\u043b\u0438\u043d\u043e\u0432\u043a\u0430","lon":30.296933,"email":"info@dacha-v-malinovke.ru","phone":"+7 (812) 627-60-37;+7 (952) 276-34-17;+7 (904) 601-06-10","lat":60.0644146,"desc":"\u041f\u0440\u043e\u0434\u0430\u0436\u0430 \u0437\u0435\u043c\u0435\u043b\u044c\u043d\u044b\u0445 \u0443\u0447\u0430\u0441\u0442\u043a\u043e\u0432","type":"node","id":2632863858,"icon":"_litecoin"},{"web":"http://www.dacha-v-malinovke.ru/","title":"\u041c\u0430\u043b\u0438\u043d\u043e\u0432\u043a\u0430","lon":29.4537566,"email":"info@dacha-v-malinovke.ru","phone":"+7 (812) 627-60-37;+7 (952) 276-34-17;+7 (904) 601-06-10","lat":60.4582138,"desc":"\u041f\u0440\u043e\u0434\u0430\u0436\u0430 \u0437\u0435\u043c\u0435\u043b\u044c\u043d\u044b\u0445 \u0443\u0447\u0430\u0441\u0442\u043a\u043e\u0432","type":"node","id":2632873508,"icon":"_litecoin"},{"city":"n3 1hf London","addr":"Dollis Park 2","title":"Geek Brothers, IT support computer repairs","lon":-0.1947339,"phone":"02034411363","web":"http://geekbros.co.uk","lat":51.6008938,"type":"node","id":2633604900,"icon":"_litecoin"},{"city":"75014 Paris","addr":"Rue des Plantes 76","title":"Alzon - Workhouse","lon":2.3185314,"phone":"+33 6 61 82 86 74","web":"http://www.alzon-gallery.com","lat":48.8252309,"type":"node","id":2633752685,"icon":"_litecoin"},{"city":"75014 Paris","addr":"Rue des Plantes 76","title":"THEBITCOIN.FR","lon":2.3187192,"web":"http://www.thebitcoin.fr","lat":48.8254039,"type":"node","id":2633860499,"icon":"_litecoin"},{"city":"V8X 1X2 Saanich","addr":"Saanich Road 3550","title":"Caorda Web Solutions","lon":-123.3712387,"phone":"1-250-598-6772","web":"http://caorda.com","lat":48.4559251,"type":"node","id":2634091987,"icon":"_litecoin"},{"city":"40127 Bologna","addr":"Via Antonio Gandusio 12","title":"Casa de Pegi","lon":11.3558035,"web":"http://www.adormo.com/en/Casa-De-Pegi/7190","lat":44.5042774,"type":"node","id":2634784839,"icon":"_litecoin"},{"city":"95650 Loomis","addr":"Delmar Avenue 3778","title":"Nitta Ranch -- www.nittaranch.com","lon":-121.2196477,"lat":38.8175619,"desc":"Seasonal farm stand. Peaches, Plums, Asian Pears, Vegetables, Honey.","type":"node","id":2635702230,"icon":"shopping_supermarket"},{"web":"http://www.kookidirt.cz","title":"KOOKI DIRT - Ozvu\u010dovac\u00ed technika, hudebn\u00ed akce","lon":16.9869875,"lat":49.2908667,"type":"node","id":2638953390,"icon":"_litecoin"},{"city":"77027 Houston","addr":"Oakshire Drive 4727","title":"Oakshire Manor Garden Apartments","lon":-95.4576308,"phone":"713-936-3158","lat":29.7368098,"type":"node","id":2639375309,"icon":"_litecoin"},{"city":"00-656 Warszawa","addr":"Jana i J\u0119drzeja \u015aniadeckich 18","title":"retouchone","lon":21.0132569,"web":"http://www.retouchone.com","lat":52.2207672,"type":"node","id":2639518630,"icon":"_litecoin"},{"city":"14050 Mexico City","addr":"Calzada de Tlalpan 4456","title":"Tabita Bakery and Gourmet Food","lon":-99.1545859,"phone":"+525566504799","web":"http://tabita.mx/","lat":19.2956254,"type":"node","id":2640080750,"icon":"food_cafe"},{"city":"06024 Gubbio","addr":"Via Tifernate 149","title":"Lepri Michele","lon":12.5576981,"web":"http://michelelepri.blogspot.it/","lat":43.3602636,"type":"node","id":2640911797,"icon":"_litecoin"},{"title":"Club1626","lon":-84.3838591,"lat":33.7798825,"type":"node","id":2643138358,"icon":"food_bar"},{"city":" Fontib\u00f3n","addr":"Calle 25F 84B-85","title":"Bitcoin Muffin","lon":-74.1201082,"lat":4.6737386,"type":"node","id":2643289134,"icon":"food_cafe"},{"web":"http://www.driplogic.co.uk","title":"Driplogic Online Marketing","lon":-1.1345776,"phone":"08446646087","lat":52.9614026,"type":"node","id":2644463578,"icon":"_litecoin"},{"city":"92404 San Bernardino","addr":"West Baseline Street 459","title":"Friendly Tax Service - Ask for Thu","lon":-117.2932125,"email":"ThuFriendlyTax@gmail.com","phone":"909-889-5333","lat":34.1211689,"type":"node","id":2645270218,"icon":"_litecoin"},{"city":" Airdrie","addr":"Kingsland Way SE 35","title":"Beachbody Sales","lon":-113.9860649,"web":"http://teambeachbody.com/kmcconnachie","lat":51.2690484,"type":"node","id":2646295836,"icon":"_litecoin"},{"web":"http://ked.ai","title":"Ked.ai Headquaters","lon":101.6659996,"phone":"+60123331337","lat":3.1067465,"type":"node","id":2649923719,"icon":"_litecoin"},{"city":"59.585.000 S\u00e3o Miguel do Gostoso","addr":"Rua das Caravelas 68","title":"Boca dos Ventos","lon":-35.6220548,"email":"gerencia@bocadosventos.com.br","web":"http://www.bocadosventos.com.br/","lat":-5.1254144,"type":"node","id":2652007510,"icon":"accommodation_hotel"},{"title":"theCOMPUTERshop PC Repairs","lon":-3.3098789,"lat":53.1141756,"type":"node","id":2653520226,"icon":"_litecoin"},{"web":"http://gikstore.com/index.php?route=common/home","addr":"Calle 161 40a","title":"GIKSTORE","lon":-71.6367361,"phone":"+584121811344","lat":10.5641506,"type":"node","id":2653787248,"icon":"_litecoin"},{"web":"http://open-one.it/","title":"Open One Consulting","lon":10.3157083,"email":"info@open-one.it","phone":"+39 030 2791465","lat":45.5148339,"desc":"Software house (free software)","type":"node","id":2656721789,"icon":"_litecoin"},{"web":"http://www.CommonSparkMedia.com","title":"Common Spark Media","lon":-77.5253505,"lat":37.660017,"type":"node","id":2657973997,"icon":"_litecoin"},{"city":"6340 Baar","addr":"M\u00fchlegasse 18","title":"Bitcoin Suisse AG","lon":8.5264186,"phone":"+41 (0) 79 196 08 82","web":"https://www.bitcoinsuisse.ch/","lat":47.1993223,"type":"node","id":2659464403,"icon":"_litecoin"},{"title":"Dynamic Photography","lon":-104.9221374,"phone":"720-469-2062","lat":39.9244634,"type":"node","id":2660029367,"icon":"_litecoin"},{"addr":"\u0443\u043b. \u041e\u0432\u0447\u0435 \u043f\u043e\u043b\u0435 ","title":"\u0418\u043d\u0442\u0435\u0440\u0443\u0443\u0442 \u0411\u044a\u043b\u0433\u0430\u0440\u0438\u044f \u0415\u0410\u0414","lon":23.3063738,"lat":42.7028558,"type":"node","id":2661165930,"icon":"_litecoin"},{"city":"50144 Firenze","addr":"Via Ferruccio Busoni 2/r","title":"3DMaking","country":"IT","lon":11.2339053,"web":"http://3dmaking.it","lat":43.7881804,"desc":"3DMaking produces 3D printers! We accept bitcoins!","type":"node","id":2662424712,"icon":"_litecoin"},{"city":"2821 Gj\u00f8vik","addr":"Ibsens gate 13B","title":"iPhix","lon":10.6862966,"web":"http://iPhix.no","lat":60.7982679,"type":"node","id":2662850657,"icon":"shopping_mobile_phone"},{"city":"460-0013 \u540d\u53e4\u5c4b\u5e02","addr":"\u5927\u6d25\u901a \u4e2d\u533a\u4e0a\u524d\u6d251-4-12","title":"\u30a2\u30a4\u30e9\u30dc\u30d5\u30a1\u30af\u30c8\u30ea\u30fc iPhone\u4fee\u7406\u30bb\u30f3\u30bf\u30fc","lon":136.9056101,"phone":"+81 52 332 0020","web":"http://ilab.cc","lat":35.1566878,"type":"node","id":2666721220,"icon":"_litecoin"},{"city":"S26 2BL Sheffield","addr":"Lodge Lane 27","title":"PaellaWorld UK","lon":-1.3093115,"web":"http://paellaworld.co.uk/","lat":53.3618398,"type":"node","id":2669996917,"icon":"_litecoin"},{"city":"31.365-250 Belo Horizonte","addr":"Rua Julita Nogueira Soares 545","title":"O Chaveiro Segredo - 24 Horas","lon":-44.0072226,"phone":"+55 31 92017016","web":"http://www.ochaveiro.com.br","lat":-19.8699528,"type":"node","id":2673228163,"icon":"_litecoin"},{"addr":"W.Hillsborough Ave 7711","title":"EZ Scuba","lon":-82.5671092,"lat":27.9973746,"type":"node","id":2673745908,"icon":"shopping_kiosk"},{"city":"90520-060 Porto Alegre","addr":"Rua Coronel Feij\u00f3 224","title":"Negalize Interactive Things","lon":-51.1817045,"phone":"+55 51 3519-3667","web":"http://negalize.it","lat":-30.0106306,"type":"node","id":2676909393,"icon":"_litecoin"},{"city":"82820310 Curitiba","addr":"Rua Albino Kaminski 375","title":"ETIST Solu\u00e7\u00f5es Tecnol\u00f3gicas","lon":-49.2050845,"phone":"55 41 3521-6046","web":"http://www.ETIST.com.br","lat":-25.4104139,"type":"node","id":2676990279,"icon":"_litecoin"},{"city":"50013 Campi Bisenzio","addr":"Via Viottole 7","title":"Gabriele Coppini","lon":11.1524985,"phone":"+39 349 3817731","lat":43.7941586,"desc":"Consulenze gestionali","type":"node","id":2677555813,"icon":"_litecoin"},{"web":"http://BitRecruiter.com","title":"BitRecruiter","lon":-117.7179013,"phone":"+1 310 421 8889","lat":33.5266968,"desc":"BitRecruiter comprises leading talent acquisition professionals and is the only recruitment outfit dedicated and equipped for cryptocurrency enterprise demands.","type":"node","id":2678323167,"icon":"_litecoin"},{"title":"Elettricista Tecnico","lon":13.3661426,"email":"lagiv84@alice.it","lat":38.0867318,"desc":"Artigiano elettricista con pluriennale esperienza nel settore civile esegue: impianti elettrici, impianti tv, telefono, citofonia, rete computer, adsl, ottimizzazione wi fi,","type":"node","id":2678538139,"icon":"_litecoin"},{"title":"Pittore Edile - Imbianchino","lon":13.3662363,"email":"lagiv84@alice.it","lat":38.0860104,"desc":"Si eseguono piccoli-medi lavori di ristrutturazione come ripristino e coloritura di vario genere su muri, soffitti ecc. Trattamento con stucchi gessi e finiture come smalti su varie superfici come ferro e legno. Max seriet\u00e0 ed elasticit\u00e0.","type":"node","id":2678549683,"icon":"_litecoin"},{"city":"20901 Silver Spring","addr":"Northwest Drive 721","title":"Professional Car Repairs","lon":-76.9919332,"lat":39.0366231,"type":"node","id":2681485038,"icon":"shopping_car_repair"},{"city":"11209 Brooklyn","addr":"4th Avenue 7123","title":"Brooklyn Tutor Co","lon":-74.0239281,"phone":"1 646 820 2807","web":"http://BrooklynTutorCo.com/","lat":40.6328809,"type":"node","id":2684959355,"icon":"_litecoin"},{"city":"18047-620 Sorocaba","addr":"Avenida Antonio Carlos Comitre 60","title":"EJEM Cursos t\u00e9cnicos e plotagens","lon":-47.4657358,"phone":"+55 15 3202.7545","lat":-23.5164995,"type":"node","id":2685955496,"icon":"_litecoin"},{"web":"http://liborio.adv.br/","title":"Escrit\u00f3rio de Advocacia Ivan Liborio","lon":-44.317616,"lat":-23.0086564,"type":"node","id":2687806816,"icon":"_litecoin"},{"web":"http://kamperek.eu/","title":"kamperek.eu","lon":21.9674367,"lat":51.4167365,"type":"node","id":2689117606,"icon":"_litecoin"},{"city":"4371 Dimbach","addr":"Gassen 29","title":"eye.candy | Visual Arts","lon":14.7124068,"email":"eye.candy@reinka.org","phone":"+43 660 7744978","lat":48.162478,"type":"node","id":2691034501,"icon":"_litecoin"},{"city":"33907 Fort Myers","addr":"Clayton Court Suite 4 5264","title":"Sweetwater Technologies","lon":-81.8753866,"phone":"+1 239-344-9202","web":"http://sweetwatertech.net","lat":26.5830485,"type":"node","id":2691615900,"icon":"_litecoin"},{"city":"23000 zadar","addr":"Put Stanova 30","title":"Vita d.o.o. za hortikulturu","lon":15.2411864,"phone":"+385 98 224462","web":"http://vita-hortikultura.hr","lat":44.1143142,"type":"node","id":2691870871,"icon":"_litecoin"},{"city":" Biograd na Moru","addr":"Ribarska ","title":"Apartmani Ana","lon":15.4474774,"phone":"+385 91 4324307","web":"http://apartmanibiograd.com","lat":43.9411485,"type":"node","id":2691870876,"icon":"_litecoin"},{"city":"1425 Ciudad Aut\u00f3noma de Buenos Aires","addr":"Pe\u00f1a ","title":"VCTARGENTINA","lon":-58.4055316,"email":"ventas@vctargentina.com.ar","web":"http://www.vctargentina.com.ar","lat":-34.5857167,"type":"node","id":2697826556,"icon":"shopping_gift"},{"city":"409000 \u91cd\u5e86\u5e02\u9ed4\u6c5f\u533a","addr":"\u89e3\u653e\u8def 399\u53f7","title":"\u767e\u5408\u5c71\u5e84","lon":108.7810994,"web":"http://newyijie.taobao.com","lat":29.5261838,"type":"node","id":2699745138,"icon":"shopping_florist"},{"city":" Carloforte","title":"Prima Luna escursioni in caicco","country":"IT","lon":8.3088404,"email":"info@nuraghia.com","phone":"+39 3333509999","lat":39.1467821,"type":"node","id":2699851600,"icon":"_litecoin"},{"title":"Crypto Brokerage/Consultancy","lon":-110.9522101,"email":"rchasman@coink.io","phone":"520-730-1042","lat":32.2249441,"type":"node","id":2701669663,"icon":"_litecoin"},{"city":"20122 Milano","addr":"Piazza Umanitaria 2","title":"Webstrike Srl","lon":9.2006116,"web":"http://www.webstrike.it/","lat":45.4585606,"type":"node","id":2701753415,"icon":"_litecoin"},{"web":"http://pneubartos.cz","title":"Pneuservis Vranovice, Zden\u011bk Barto\u0161","lon":16.6087016,"phone":"+420519433192","lat":48.9706738,"type":"node","id":2702477612,"icon":"_litecoin"},{"city":"2207 Coffrane","addr":"Rue de Dessous 9","title":"Cheveux Naturels","lon":6.8630681,"web":"https://www.cheveux-naturels.com/","lat":47.0095922,"type":"node","id":2702703118,"icon":"_litecoin"},{"city":"40020-000 Salvador","addr":"Rua Chile 5","title":"Cheveux Naturels","lon":-38.5129007,"web":"https://www.cheveux-naturels.com/","lat":-12.9749488,"type":"node","id":2702706129,"icon":"_litecoin"},{"city":"78723 Austin","addr":"Touchstone Street 3501","title":"Problem Solved - Handyman Services","lon":-97.6812034,"phone":"512.270.0307","web":"http://problemsolved512.com","lat":30.2894976,"type":"node","id":2703661737,"icon":"_litecoin"},{"city":"V3K3P1 Coquitlam","addr":"Austin Avenue 47551 1-1020","title":"SpoofTel Ltd.","lon":-122.8658851,"phone":"8888510249","web":"https://www.spooftel.com","lat":49.2486878,"type":"node","id":2703759889,"icon":"_litecoin"},{"city":"78613 Cedar Park","addr":"S Bell Blvd., Suite 301 930","title":"Breath and Balance Bodyworks","lon":-97.8134229,"phone":"(512)923-0785","web":"http://www.breathandbalancebodyworks.com","lat":30.4997644,"type":"node","id":2705156688,"icon":"_litecoin"},{"city":"11527 Athens","addr":"\u0391\u03bb\u03b5\u03be\u03b1\u03bd\u03b4\u03c1\u03bf\u03c5\u03c0\u03cc\u03bb\u03b5\u03c9\u03c2 23","title":"Datalive - \u03a5\u03c0\u03b7\u03c1\u03b5\u03c3\u03af\u03b5\u03c2 \u03c0\u03bb\u03b7\u03c1\u03bf\u03c6\u03bf\u03c1\u03b9\u03ba\u03ae\u03c2","lon":23.7596535,"phone":"+30 211 7705024","web":"http://www.datalive.gr","lat":37.9825808,"type":"node","id":2706198496,"icon":"_litecoin"},{"title":"TLC Bellville","lon":18.6584212,"lat":-33.8866343,"type":"node","id":2706824255,"icon":"_litecoin"},{"city":"80528 Fort Collins","addr":"Andrews Street 2203","title":"Ryan's Tech Solutions","lon":-105.0373727,"phone":"9704308315","web":"http://ryanstechsolutions.com/","lat":40.4976829,"desc":"Web Development and Computer Repair","type":"node","id":2710445244,"icon":"_litecoin"},{"city":"6161 ED Geleen","addr":"Rijksweg Centrum 73","title":"Computer Center Geleen","lon":5.8294435,"web":"http://computergeleen.nl/","lat":50.9683804,"type":"node","id":2711775700,"icon":"shopping_computer"},{"title":"Dome decoraci\u00f3n","lon":-8.3898461,"phone":"3498101521","lat":43.3534511,"desc":"30 a\u00f1os de experiencia en el sector del interiorismo y la decoraci\u00f3n.","type":"node","id":2711777803,"icon":"_litecoin"},{"addr":"\u96d9\u57ce\u885725\u5df72\u865f\u4e4b1 0225975580","title":"PATINA Lounge","lon":121.524566,"lat":25.0661283,"type":"node","id":2712358251,"icon":"food_pub"},{"city":"99894 Friedrichroda OT Ernstroda","addr":"\u00d6sterfeld 5","title":"PAGRANTHO Fenster & T\u00fcren","lon":10.6240172,"email":"g.kanzler@pagrantho.eu","phone":"03623 310 600","lat":50.8644317,"type":"node","id":2712547858,"icon":"_litecoin"},{"city":"99894 Friedrichroda OT Ernstroda","addr":"Alte Hauptstra\u00dfe 21","title":"PAGRANTHO Fenster & T\u00fcren","lon":10.61702,"email":"g.kanzler@pagrantho.eu","phone":"01577 332 58 05","lat":50.8636944,"type":"node","id":2712591777,"icon":"_litecoin"},{"city":"75006 Carrollton","addr":"Skylane Drive 3201","title":"Smith Offroad and Performance","lon":-96.8491484,"phone":"+1 972-3026742","web":"http://smithoffroad.com/","lat":32.9787024,"type":"node","id":2713861921,"icon":"_litecoin"},{"city":"GU98BB Farnham","addr":"Waverley Lane 1","title":"LovesJessica.com","lon":-0.7906581,"web":"http://www.lovesjessica.com","lat":51.212614,"type":"node","id":2714447434,"icon":"_litecoin"},{"web":"http://www.papotti.net","title":"Andrea Papotti - Consulente Informatico","lon":11.0937266,"email":"andrea@papotti.net","phone":"+39 349 3262951","lat":44.9129363,"desc":"Consulenza informatica per le imprese ed il privato","type":"node","id":2714869588,"icon":"_litecoin"},{"city":"49401 Allendale","addr":"Residence Ct, Apt #224 3930","title":"JR Repair LLC - GVSU Branch","lon":-85.8833223,"lat":42.9679356,"type":"node","id":2721628980,"icon":"shopping_mobile_phone"},{"title":"JR Repair LLC - MSU Branch","lon":-84.4902785,"lat":42.7249755,"type":"node","id":2721656886,"icon":"shopping_mobile_phone"},{"city":"76537 Jarrell","addr":"2nd Street 401","title":"Mayshinter Metals, LLC","lon":-97.6089651,"lat":30.8241136,"type":"node","id":2722452918,"icon":"_litecoin"},{"web":"http://www.cryptolink.net.au","title":"Cryptolink","lon":145.1513373,"lat":-37.8179823,"desc":"Bitcoin Teller Machines & Website Intergration.","type":"node","id":2722769627,"icon":"_litecoin"},{"city":"77045 Houston","addr":"Allum Road 4844","title":"Allum Boat & RV Storage","lon":-95.453882,"phone":"713-936-3158","lat":29.641303,"type":"node","id":2723938127,"icon":"_litecoin"},{"city":"77023 Houston","addr":"Cullen Boulevard 1610","title":"David Center","lon":-95.340206,"phone":"713-936-3158","lat":29.737026,"type":"node","id":2723953871,"icon":"_litecoin"},{"city":"77007 Houston","addr":"Darling Street 5844","title":"Darling Apartment Homes","lon":-95.4286082,"phone":"713-936-3158","lat":29.7798609,"type":"node","id":2723963815,"icon":"_litecoin"},{"city":"77007 Houston","addr":"Darling Street 5845","title":"Darling House","lon":-95.428571,"phone":"713-936-3158","lat":29.779633,"type":"node","id":2723970583,"icon":"_litecoin"},{"city":"77043 Houston","addr":"Chatterton Drive 11010","title":"Chatterton Court Storage","lon":-95.5754109,"phone":"713-936-3158","lat":29.7993911,"type":"node","id":2723976331,"icon":"_litecoin"},{"web":"http://www.beautifullycinematic.com/","title":"Beautifully Cinematic Films","lon":-117.1529996,"phone":"+16197346483","lat":32.711417,"type":"node","id":2725999274,"icon":"_litecoin"},{"city":"1003 Lausanne","addr":"Voie du Chariot 3, 4th floor ","title":"BtcSuisse S\u00e0rl ( GmbH / LLC )","lon":6.6292833,"phone":"+41 77 403 5618","lat":46.5207492,"type":"node","id":2726965605,"icon":"_litecoin"},{"city":"43-100 Tychy","addr":"Genera\u0142a Charlesa de Gaulle'a 8","title":"coinbit.eu","lon":19.0039217,"email":"admin@coinbit.eu","web":"http://www.coinbit.eu","lat":50.1081577,"type":"node","id":2728534043,"icon":"_litecoin"},{"city":"66020 Sambuceto di San Giovanni Teatino","addr":"Andrea Doria 2 Via","title":"Olife - Estratto foglie olivo Bio - \"Un miracolo della natura\"","lon":14.1857879,"phone":"+39 345 0669415","web":"http://www.evergreenlife.it/robertogiuliani","lat":42.4245436,"desc":"OLIVUM\u00ae, l'esclusivo Infuso di Foglie d'Olivo \u00e8 ricco di Oleuropeina, Acido Elenolico, Idrossitirosolo, Tirosolo e Rutina.","type":"node","id":2731924330,"icon":"_litecoin"},{"city":"01050-070 S\u00e3o Paulo","addr":"Rua \u00c1lvaro de Carvalho 179","title":"PreVet - Cl\u00ednica Veterin\u00e1ria","country":"BR","lon":-46.642228,"web":"http://www.prevethome.com.br","lat":-23.5490556,"type":"node","id":2740072737,"icon":"health_veterinary"},{"city":"20141 Milano","addr":"Via Giuseppe Meda 45","title":"Laboratorio 51","lon":9.1787147,"phone":"+39 02 89459735","web":"http://laboratorio51.com/","lat":45.4398035,"desc":"Studio di Architettura, Urbanistica, Riqualificazione Urbana, Progetti immobiliari, Rendering","type":"node","id":2742422390,"icon":"_litecoin"},{"city":"33461 Lake Worth","addr":"Lake Worth Road 2745","title":"Florida Screen Company, Etc.","lon":-80.0861022,"phone":"561-662-4187","lat":26.6180898,"type":"node","id":2743391892,"icon":"_litecoin"},{"web":"http://tecnoinfo.ch/","title":"Tecnoinfo","lon":8.7994768,"lat":46.4779146,"type":"node","id":2745120688,"icon":"_litecoin"},{"city":"26135 Oldenburg","addr":"Cloppenburger Stra\u00dfe 79","title":"SupremeFlyer.de","lon":8.2213304,"phone":"0441 59458040","web":"http://supremeflyer.de/","lat":53.126472,"type":"node","id":2745844922,"icon":"_litecoin"},{"title":"Architekci Podr\u00f3\u017cy","lon":18.6070843,"lat":54.3955049,"type":"node","id":2746910056,"icon":"_litecoin"},{"city":"98282 Camano Island","addr":"East North Camano Drive 325","title":"BoulderWorx.com","lon":-122.463998,"phone":"360 499 2998","web":"http://boulderworx.com","lat":48.2513773,"type":"node","id":2751117951,"icon":"_litecoin"},{"web":"http://www.topbody.cz/","title":"TopBody - Flora","lon":14.4612706,"phone":"+420605832121","lat":50.0774372,"type":"node","id":2755159684,"icon":"_litecoin"},{"city":" Toyota City","addr":"T-Face Mall ","title":"Satoshi Mart","lon":137.1552139,"lat":35.0871398,"type":"node","id":2756624054,"icon":"shopping_supermarket"},{"city":"92704 Santa Ana","addr":"West MacArthur Blvd Suite E 3400","title":"eCoinduit","lon":-117.9151513,"phone":"714-662-4959","web":"http://www.ecoinduit.com","lat":33.7013886,"type":"node","id":2760034578,"icon":"_litecoin"},{"city":"31300 Toulouse","addr":"Avenue \u00c9tienne Billi\u00e8res 12","title":"Agence web, logiciel & mobile - Skyline Creations","lon":1.4286094,"web":"http://skyline-creations.fr/","lat":43.5976158,"type":"node","id":2765906666,"icon":"_litecoin"},{"web":"http://www.oxpal.com","title":"Thomas Schmall - art and games","lon":4.8874143,"lat":52.3909226,"type":"node","id":2766537661,"icon":"_litecoin"},{"city":"0110 Whangarei","addr":"Tarewa Road 73","title":"Absolute Bitcoin","lon":174.311466,"phone":"+64 9 283 9569","lat":-35.7361791,"type":"node","id":2768896134,"icon":"_litecoin"},{"city":"0110 Whangarei","addr":"Tarewa Road 73","title":"Absolute Cars Ltd","lon":174.3114366,"phone":"+64 9 972 7285","lat":-35.7362381,"type":"node","id":2768896136,"icon":"_litecoin"},{"city":"0110 Whangarei","addr":"Tarewa Road 73","title":"Private Bullion Group","lon":174.311493,"phone":"+64 9 283 9569","lat":-35.7361205,"type":"node","id":2768909278,"icon":"_litecoin"},{"title":"Coin Coin","lon":-43.1777148,"lat":-22.9062587,"type":"node","id":2770097821,"icon":"_litecoin"},{"title":"Kobblers","lon":152.975821,"lat":-27.4594173,"type":"node","id":2774179973,"icon":"food_cafe"},{"web":"http://spleenlessmastering.com","title":"Spleenless Audio Mastering and Audio Restoration","lon":-73.9494655,"lat":40.7316463,"type":"node","id":2776271739,"icon":"_litecoin"},{"city":"06140 M\u00e9xico","addr":"Avenida Tamaulipas 148","title":"DescargoPremium","lon":-99.1758132,"web":"http://descargopremium.com","lat":19.4090689,"type":"node","id":2776588135,"icon":"_litecoin"},{"web":"http://www.online-mixing.com/","title":"ONLINE-MIXING.COM","lon":-0.0727363,"lat":51.5664137,"type":"node","id":2776870004,"icon":"_litecoin"},{"city":"92264 Palm Springs","addr":"Avery Drive 2801","title":"Park Apartments","lon":-116.5164439,"phone":"(760) 323-7636","web":"https://plus.google.com/105289783771938943833/about?gl=us&hl=en","lat":33.8022719,"type":"node","id":2780554540,"icon":"_litecoin"},{"city":"41001 Sevilla","addr":"Calle Arjona 18 Local-Oficina 3","title":"Albucon","lon":-6.0026989,"phone":"+34 954229752","web":"https://www.albucon.com","lat":37.388942,"type":"node","id":2783696443,"icon":"_litecoin"},{"city":"n2c 1p7 kitchener","addr":"Fifth AVenue 156","title":"KW Smart Home","lon":-80.4540219,"phone":"519-500-0410","web":"http://www.kwsmarthome.com","lat":43.4305049,"type":"node","id":2784029757,"icon":"_litecoin"},{"city":"71215267 Bras\u00edlia","addr":"SOF SUL Quadra 13 Conjunto B, Lote 16","title":"UNEPXMIL 48hs (Rastreadores)","lon":-47.9585742,"phone":"+55 61 3299-7629","web":"http://www.unepxmildf.com.br/","lat":-15.8256071,"type":"node","id":2784721334,"icon":"_litecoin"},{"city":"44135 Dortmund","addr":"Br\u00fcckstra\u00dfe 20-26","title":"ALLYOUCANmiet","lon":7.4658482,"phone":"+49 231 13 75 28 74","web":"http://www.aycm.de","lat":51.5155113,"type":"node","id":2790206719,"icon":"shopping_supermarket"},{"city":"07400 antalya","addr":"B\u00fcy\u00fck Has Bah\u00e7e Caddesi 45","title":"Atam Lawyers & Consultants","lon":32.0127103,"phone":"+90 242 513 9936","lat":36.5521316,"type":"node","id":2793052057,"icon":"_litecoin"},{"web":"https://www.facebook.com/7sinshartford","addr":"Union Place 76","title":"7 Sins Lounge and Bar","lon":-72.6811856,"lat":41.769278,"type":"node","id":2794763891,"icon":"food_bar"},{"title":"Pusateri Music Lessons","lon":-73.8726108,"lat":40.7405483,"type":"node","id":2796763769,"icon":"_litecoin"},{"city":"40-025 Katowice","addr":"Zacisze 2/6","title":"BitBay - Gie\u0142da BTC i LTC","lon":19.0290978,"web":"http://bitbay.pl","lat":50.2554178,"type":"node","id":2797414580,"icon":"_litecoin"},{"city":"94010020 Gravata\u00ed","addr":"Rua Doutor Luiz Bastos do Prado 1586","title":"INEURO","lon":-50.9935051,"phone":"+55 51 34841745","web":"http://www.ineuro.med.br","lat":-29.9410115,"type":"node","id":2798468554,"icon":"_litecoin"},{"city":"48331 Farmington Hills","addr":"W 12 Mile Rd 37580","title":"The Bronx Deli - We accept BTC LTC & DOGE","lon":-83.4196349,"phone":"(248)-893-7587","web":"http://bronxdeli.com/","lat":42.4992745,"type":"node","id":2799463020,"icon":"food_restaurant"},{"city":"91306 winnetka","addr":"Sherman Way 19701","title":"LA CARS REPO","lon":-118.562636,"phone":"818-998-9977","lat":34.2014648,"type":"node","id":2807870391,"icon":"_litecoin"},{"title":"Startup Stock Exchange","lon":-68.9320401,"lat":12.1078189,"type":"node","id":2811343727,"icon":"_litecoin"},{"city":"80571 Ubud","addr":"Raya Sanggingan 88x","title":"Cinta Bahasa Indonesian Language School","lon":115.2531651,"web":"http://cintabahasa.com/","lat":-8.4968164,"type":"node","id":2813011030,"icon":"_litecoin"},{"city":"S1 2BP Sheffield","addr":"Sheffield Digital Campus Electric works","title":"ACEG","lon":-1.4629433,"phone":"01143606011","web":"http://aceg.co","lat":53.3800756,"type":"node","id":2815898801,"icon":"_litecoin"},{"city":" Vancouver","addr":"Pandora Street 1814","title":"Maitri Wellness - Thai Massage","lon":-123.0699322,"email":"adelie@maitriwellness.ca","phone":"604.229.3299","web":"http://www.maitriwellness.ca","lat":49.2829459,"type":"node","id":2816159101,"icon":"_litecoin"},{"city":"R3E3H1 Winnipeg","addr":"Empress Street 1115","title":"Winnipeg Technology & Computer Renewal","lon":-97.1946283,"phone":"(204) 272-2945","lat":49.9000989,"type":"node","id":2816941231,"icon":"shopping_computer"},{"city":"1422XX Uithoorn","addr":"Amsteldijk-Noord 35","title":"DutchMiningCompany","lon":4.8432779,"lat":52.237515,"type":"node","id":2820769032,"icon":"_litecoin"},{"city":"V8V 4Z3 Victoria","addr":"Yates Street 930","title":"Moonrise Photography","lon":-123.358037,"web":"http://moonrise.ca","lat":48.4257661,"type":"node","id":2822137340,"icon":"_litecoin"},{"city":"8340431 Santiago","addr":"Huerfanos 1400","title":"Bit Inn Suites","lon":-70.6566641,"web":"http://www.bitinnsuites.com","lat":-33.4403607,"type":"node","id":2823830818,"icon":"accommodation_hotel"},{"city":"81241 M\u00fcnchen","addr":"Planegger Stra\u00dfe 122","title":"4freelance","lon":11.452579,"web":"http://www.4freelance.de","lat":48.135326,"type":"node","id":2824434628,"icon":"_litecoin"},{"city":"2106 Newport Beach","addr":"Barrenjoey Road 341","title":"CryptoThrift","lon":151.3194129,"web":"https://cryptothrift.com/","lat":-33.6553753,"type":"node","id":2825660858,"icon":"_litecoin"},{"city":"81667 M\u00fcnchen","addr":"Metzstra\u00dfe 14b","title":"Team Centric Software","lon":11.5983031,"phone":"+49 89 1395890","web":"http://www.tcs.de","lat":48.1290077,"type":"node","id":2830896949,"icon":"_litecoin"},{"city":"22085 Hamburg","addr":"Averhoffstra\u00dfe 17","title":"Team Centric Software","lon":10.0245994,"phone":"+4940303927800","web":"http://www.tcs.de","lat":53.5711019,"type":"node","id":2830896950,"icon":"_litecoin"},{"city":"15313 Tangerang Selatan, Banten","addr":"Batan Indah Blok I no.11 Kademangan, Serpong Komplek","title":"Kenaliwa Coffee","lon":106.6718815,"phone":"085695438963","web":"http://golampung.com","lat":-6.3282232,"type":"node","id":2831181025,"icon":"food_cafe"},{"city":"3012 West footscray","addr":"Geelong Road 444-448","title":"Fastway Aquarium & Hydroponics","lon":144.8657155,"phone":"03-93141119","web":"http://www.fasthydro.com.au","lat":-37.8118116,"type":"node","id":2852216853,"icon":"_litecoin"},{"city":"89207-470 Joinville","addr":"Rua Waldemiro Castela 96","title":"Insane Machina Arts","lon":-48.8284596,"phone":"+55 47 99118896","web":"http://www.insanemachina.com","lat":-26.3297621,"desc":"Arte digital, ilustra\u00e7\u00e3o, pintura, m\u00fasica, anima\u00e7\u00e3o experimental, confira!","type":"node","id":2852960225,"icon":"_litecoin"},{"city":"46160 Liria, Valencia","addr":"Carrer del Pla de l'Arc 19","title":"alpel.es","lon":-0.5931103,"web":"http://www.alpel.es","lat":39.6325589,"type":"node","id":2854975347,"icon":"_litecoin"},{"city":"120019 Buz\u0103u","addr":"Strada Ion Heliade R\u0103dulescu 57","title":"Giulia Beauty Studio","lon":26.8109068,"phone":"+40760892281","lat":45.1549524,"type":"node","id":2857644521,"icon":"_litecoin"},{"city":"56-100 Wo\u0142\u00f3w","addr":"Komuny Paryskiej ","title":"CVD s.c.","lon":16.6356151,"phone":"+48 501 283 273","web":"http://www.cvd.pl","lat":51.3369174,"type":"node","id":2859896724,"icon":"_litecoin"},{"web":"http://www.cvdnet.pl","title":"CVDnet","lon":16.6356032,"phone":"+48 501 283 273","lat":51.3368943,"type":"node","id":2859897864,"icon":"_litecoin"},{"city":"10461 Bronx","addr":"Crosby Avenue 1634","title":"East Dynasty Restaurant","lon":-73.830733,"phone":"+17188237885","lat":40.8449804,"type":"node","id":2860863261,"icon":"food_restaurant"},{"city":"LV-1011 R\u012bga","addr":"L\u0101\u010dpl\u0113\u0161a iela 36","title":"Koks kast\u0113","lon":24.1268989,"phone":"+37129118026","web":"http://kokskaste.lv","lat":56.9533241,"type":"node","id":2861508690,"icon":"_litecoin"},{"city":"75092 Sherman","addr":"Meyers Drive 138","title":"Blackmarketpc","lon":-96.6590601,"web":"https://www.blackmarketpc.com","lat":33.6229985,"type":"node","id":2866592397,"icon":"_litecoin"},{"title":"\u30a2\u30a4\u30e9\u30dc\u30d5\u30a1\u30af\u30c8\u30ea\u30fciPhone\u4fee\u7406110\u756a","lon":139.7721626,"lat":35.697943,"type":"node","id":2866948170,"icon":"_litecoin"},{"city":"600036 Chennai","addr":"Taramani Road Delhi Avenue, IIT Ganga Building Suite #2001","title":"Bongocoin","lon":80.2445695,"phone":"+91 89 39 582637","web":"https://bongocoin.com","lat":12.9863015,"type":"node","id":2871892701,"icon":"_litecoin"},{"city":"K1N 6N8 Ottawa","addr":"Osgoode Street 112","title":"Father and Sons","lon":-75.6812268,"lat":45.4237088,"type":"node","id":2873280231,"icon":"food_restaurant"},{"city":" Bratislava","addr":"Gallayova 2150/15","title":"Cryptodiggers ESHOP","country":"SK","lon":17.0320792,"web":"https://www.cryptodiggers.eu/eshop","lat":48.1922869,"type":"node","id":2873957753,"icon":"_litecoin"},{"city":"22310 Tijuana","addr":"Avenida Universidad 2011","title":"Estudio 664","lon":-116.9773834,"phone":"+664 607 5394","lat":32.5280264,"type":"node","id":2874924629,"icon":"amenity_library"},{"title":"Clases particulares F\u00edsica y Matem\u00e1tica - Luis","lon":-58.6015449,"email":"luisdanielcortes87@gmail.com","lat":-34.6404482,"desc":"Clases particulares de F\u00edsica y Matem\u00e1tica nivel secundario y universitario -   Estudiante del \u00faltimo a\u00f1o de Ingenier\u00eda Aeron\u00e1utica UTN-FRH","type":"node","id":2876865379,"icon":"education_university"},{"city":"9463 Oberriet","addr":"Kellenstrasse 16a","title":"3Media Schweiz","lon":9.5633341,"web":"http://3media.ch/","lat":47.3213182,"type":"node","id":2877266917,"icon":"_litecoin"},{"title":"Servicio T\u00e9cnico Computaci\u00f3n - Reyco","lon":-58.5915997,"phone":"11-6626-0952","lat":-34.6436774,"type":"node","id":2880305130,"icon":"shopping_computer"},{"city":"95900-000 Lajeado","addr":"Rua Rui Barbosa 167","title":"Fernando Bohrer","lon":-51.9638613,"phone":"+55 51 9266-6242","web":"http://www.fernandobohrer.com","lat":-29.4587311,"type":"node","id":2885214306,"icon":"_litecoin"},{"web":"http://philip.kolba.org","title":"Philip Kolba Counseling","lon":-122.6763546,"phone":"+15039870336","lat":45.5225398,"type":"node","id":2890652879,"icon":"_litecoin"},{"web":"http://www.safecomputing.in","title":"safecomputing.in","lon":72.9670907,"lat":19.2259024,"type":"node","id":2898922232,"icon":"_litecoin"},{"title":"Bitcoin ATM","lon":-75.6811552,"lat":45.4237317,"type":"node","id":2903361247,"icon":"_litecoin"},{"city":"85037 Phoenix","addr":"West Vernon Avenue 8346","title":"Phoenix CPU Repair","country":"US","lon":-112.2393968,"phone":"602-349-5741","web":"http://phxcpu.com/","lat":33.473444,"type":"node","id":2903570658,"icon":"shopping_computer"},{"city":" San Francisco","addr":"Mission Street 603","title":"imPrint CP","lon":-122.3998375,"web":"http://www.http://imprintcp.com","lat":37.7877738,"type":"node","id":2908063716,"icon":"_litecoin"},{"web":"http://bracelets.mariadana.com/","addr":"Santa Cruz 23B","title":"Funny Loom Bracelets","lon":-0.1211759,"email":"info@mariadana.com","phone":"+34 974 486 793","lat":42.6028392,"desc":"In our online shop we are offering rubber loom bracelets, key-chains, rubber flags in many colours and models.","type":"node","id":2909090996,"icon":"shopping_gift"},{"web":"http://www.cipix.eu","addr":"Santa Cruz 23B","title":"DELLicious Computers","lon":-0.1211572,"email":"cipix@cipix.eu","phone":"+34 616 731 811","lat":42.6028133,"desc":"Computer repairs, remote support, servers, desktops, laptops, IT consultancy","type":"node","id":2909347954,"icon":"shopping_computer"},{"web":"http://eclecticjewelrydesigns.net/","addr":"1409 W. Ehringhaus St. Ste 23","title":"Eclectic Jewelry","lon":-76.2402988,"lat":36.2927385,"type":"node","id":2910100201,"icon":"shopping_jewelry"},{"city":" City of Ottawa","addr":"Saint Patrick Street 303","title":"Angelo's Pizza","lon":-75.6913396,"lat":45.431723,"desc":"fasdf","type":"node","id":2913128601,"icon":"food_restaurant"},{"city":"EX349SX Berrynarbor","addr":"Castle Hill ","title":"Firethought LTD","lon":-4.0562013,"web":"http://www.firethought.net/","lat":51.2003027,"type":"node","id":2915105691,"icon":"_litecoin"},{"addr":"Bartolom\u00e9 Mitre 1710","title":"TusBitcoins - BTC Exchange","lon":-58.3910259,"email":"tusbitcoins@gmail.com","phone":"54'11'4952-5600","lat":-34.6080316,"desc":"Bitcoin Exchange ($, U$D, Euro, Real, etc)","type":"node","id":2915145385,"icon":"_litecoin"},{"city":"80410001 Curitiba","addr":"Rua Visconde do Rio Branco 887","title":"Bitcoin To You","lon":-49.281311,"lat":-25.4296365,"type":"node","id":2930554885,"icon":"_litecoin"},{"city":"50137 Firenze","addr":"Via Giuseppe Sirtori ","title":"bquery design","lon":11.2899329,"web":"http://bquery.com","lat":43.7816725,"type":"node","id":2934157594,"icon":"_litecoin"},{"city":"09890 Mexico City","addr":"Siracusa 130","title":"Descubrimientos Ind\u00edgenas y Rurales de M\u00e9xico","country":"MX","lon":-99.0935711,"phone":"525556072978","web":"http://descubrimientos-indigenas.mx/","lat":19.3163362,"desc":"Indigenous and Rural Discoveries of Mexico offers you indigenous solidarity tourism, adventure and holistic tours.","type":"node","id":2934625811,"icon":"_litecoin"},{"title":"Fox Agorist Taxicab","lon":-72.2775862,"phone":"603-585-3173","lat":42.9284948,"desc":"We barter transportation for any cryptocurrency traded on Cryptsy or Poloniex. Will also carry time/security-sensitive messages between two parties. (And no, we won't haul your drugs/hookers/etc.)","type":"node","id":2941423715,"icon":"_litecoin"},{"city":"48473 Swartz Creek","addr":"Miller Road 8048","title":"AHLUSION LLC","lon":-83.8325628,"lat":42.9578415,"type":"node","id":2949185337,"icon":"_litecoin"},{"city":"56012 Fornacette","addr":"Via Genova 6/b","title":"Graficom di Ferrucci Sandro","lon":10.5762393,"phone":"+39 0587 422214","web":"http://www.graficomitalia.com","lat":43.6721352,"desc":"Realizziamo stampa di piccolo e grande formato, cartellonistica, abbigliamento personalizzato promozionale, sportivo e da lavoro, siti internet e stand","type":"node","id":2949991344,"icon":"_litecoin"},{"city":"20027 Parabiago","addr":"Via San Michele 13","title":"Piaceri & Pasticci","lon":8.9469517,"phone":"+39 0331 553938","web":"http://piaceriepasticci.it/","lat":45.5585484,"type":"node","id":2955910244,"icon":"food_restaurant"},{"title":"Makevoid - Software Development","lon":11.2871405,"lat":43.8050898,"type":"node","id":2956850966,"icon":"_litecoin"},{"city":"SW2 4UD London","addr":"Streatham Hill 89c","title":"Dream State","lon":-0.1258648,"web":"http://dreamstateuk.com/","lat":51.4389964,"type":"node","id":2961067278,"icon":"_litecoin"},{"city":"33407 West Palm Beach","addr":"Westroads Drive 4423","title":"Toth Realty","lon":-80.1067021,"web":"http://www.tothrealty.com","lat":26.7739384,"type":"node","id":2962927856,"icon":"_litecoin"},{"city":"88330774 Balne\u00e1rio Cambori\u00fa","addr":"Rua 1101 60","title":"GRUPOW Softwares para Internet","lon":-48.6377169,"phone":"+55 47 30567670","web":"http://www.grupow.com.br","lat":-26.9817518,"type":"node","id":2967050440,"icon":"_litecoin"},{"city":" Newport News","addr":"Woodhaven Rd 25","title":"Bella Cab","lon":-76.5697131,"email":"delibertied@inbox.com","phone":"828-242-0700","web":"http://www.delibertied.com/bellacab/","lat":37.1730957,"desc":"Taxi Service","type":"node","id":2967918433,"icon":"shopping_book"},{"city":" All South FL","title":"Mike G Mobile DJ Service","lon":-80.3473793,"phone":"954-854-6904","lat":26.0602535,"desc":"Private and public events, all kinds of music, let's party!!! Call or Text","type":"node","id":2968329369,"icon":"_litecoin"},{"city":"8952 Schlieren","addr":"Grabenstrasse 11a","title":"Brainware Analytics GmbH - solutions for GPU computing","lon":8.4515083,"phone":"+41763024052","web":"http://bwan.ch","lat":47.3986567,"type":"node","id":2974876628,"icon":"_litecoin"},{"city":"T2V 1K2 Calgary","addr":"Elbow Drive SW 150-7620","title":"MITVIS Corporation","lon":-114.0823436,"email":"info@mitvis.com","phone":"+1-587-333-0286","web":"http://www.mitvis.com","lat":50.9853498,"type":"node","id":2975884140,"icon":"_litecoin"},{"city":"40215 D\u00fcsseldorf","addr":"Mintropstra\u00dfe 10","title":"SHISHAFROG for Shisha & Tabak","country":"DE","lon":6.7889351,"phone":"+49 (0) 152 13072 660","web":"http://www.shishafrog.de","lat":51.2186467,"type":"node","id":2986059623,"icon":"_litecoin"},{"city":"8105 Regensdorf","addr":"Althardstrasse 150","title":"Forbidden Planet AG / 1Advd.ch","lon":8.4669541,"phone":"044 840 06 33","web":"http://www.1Advd.ch","lat":47.44098,"type":"node","id":2986375504,"icon":"_litecoin"},{"city":"80571 Ubud","addr":"Petulu 122","title":"rumah IDEA / kaleidoscope","lon":115.2752647,"web":"http://ideaglobal.ch","lat":-8.4848251,"type":"node","id":2987298457,"icon":"_litecoin"},{"web":"http://www.actitudweb.com.ar","title":"Actitud Web","lon":-58.4311191,"phone":"+54 9 11 36286938","lat":-34.5854896,"type":"node","id":2989784824,"icon":"_litecoin"},{"title":"Samba Construction","lon":-71.9849362,"lat":42.2477778,"type":"node","id":2995125104,"icon":"_litecoin"},{"city":"V0N1H0 Grand Forks","addr":"Riverside Drive 8780","title":"Noble House Suites","lon":-118.4454013,"phone":"+1(250)442-3393","web":"http://www.noblehousesuites.com/","lat":49.0452112,"type":"node","id":3006114341,"icon":"accommodation_hotel"},{"city":"4006 Fortitude Valley","addr":"Winn Street 5A","title":"The Outpost","lon":153.0363347,"phone":"(07) 3666 0306","web":"http://www.theoutpoststore.com.au/","lat":-27.4578448,"type":"node","id":3006160100,"icon":"shopping_book"},{"city":"6883 Novazzano","addr":"Via R\u00e9siga 2","title":"Rentforyou","lon":8.9978468,"phone":"+41 91 682 20 91","web":"http://rentforyou.ch/","lat":45.8392525,"desc":"Noleggio city car, furgoni lavoro, furgoni trasporto persone","type":"node","id":3006422718,"icon":"transport_rental_car"},{"city":"76262 Roanoke","addr":"Boeing Way 500","title":"North Texas Pilot Supply","lon":-97.2312726,"phone":"817-490-0046","web":"http://www.TinasPilotShop.com","lat":33.0545235,"type":"node","id":3009798652,"icon":"_litecoin"},{"city":"76249 Denton","addr":"Hwy 380 West 11555","title":"Talion Firearms, LLC","lon":-97.2472943,"phone":"1-866-944-3339","web":"http://www.TalionLLC.com","lat":33.2338948,"type":"node","id":3009846850,"icon":"_litecoin"},{"web":"https://www.facebook.com/pages/GIN-TONIC-Clothing/596909337071187?fref=ts","addr":"Bogot\u00e1 3168","title":"GIN TONIC CLOTHING","lon":-58.473233,"phone":"1124501537","lat":-34.628057,"desc":"Paseo Bogot\u00e1, local 7","type":"node","id":3028763857,"icon":"shopping_clothes"},{"city":"1150 Wien","addr":"Guntherstra\u00dfe 11","title":"Sebastian Schally","country":"AT","lon":16.3260653,"web":"http://www.schally.at","lat":48.2022702,"type":"node","id":3034665106,"icon":"_litecoin"},{"city":"26554 Whitehall","addr":"Village Drive 100","title":"CORPUS.IO","lon":-80.1952495,"phone":"+1 646 355 8865","web":"http://www.corpus.io","lat":39.4221299,"type":"node","id":3039879875,"icon":"_litecoin"},{"city":"01127 Vilnius","addr":"Savi\u010diaus g. 12","title":"Jimmy Jumps House","lon":25.2898262,"phone":"+370 523 13 847","web":"http://jimmyjumpshouse.com/","lat":54.6794153,"type":"node","id":3047048128,"icon":"accommodation_youth_hostel"},{"city":" Juazeiro do Norte","addr":"Rua Jos\u00e9 Marrocos 857","title":"MW\u00b2S - Consultoria em TI","lon":-39.3200262,"email":"gledsonssantos@gmai.com","phone":"+55 88 97296940","web":"http://www.macsu.com.br","lat":-7.2165769,"type":"node","id":3049832125,"icon":"_litecoin"},{"city":" Valladolid","addr":"Calle Portillo del Prado 8","title":"Tahona Encarni","lon":-4.7183229,"phone":"+34 635548195","lat":41.6590594,"type":"node","id":3063996776,"icon":"shopping_supermarket"},{"city":" Ottawa","addr":"Rideau Street 64","title":"Cryptowear","lon":-75.6854545,"email":"whatsup@cryptowear.ca","phone":"613-702-0408","lat":45.4288008,"desc":"Crypto Apparel","type":"node","id":3066044133,"icon":"_litecoin"},{"web":"http://usailbarbados.wix.com/usailkn","title":"USAIL Sailing and motor boat rentals and sailing school","lon":-59.6096805,"email":"usail.barbados@gmail.com","lat":13.0825167,"desc":"Rent a sailing or motor boat, or learn sailing 24 feet boat (J24) by yourself in 3 days!!! Or just enjoy tailor made sailing trip with snorkelling and rum punch stops as we go. Email us today with your wishes and we prepare you  personalised offer!","type":"node","id":3066539662,"icon":"_litecoin"},{"city":"53-512 Wroc\u0142aw","addr":"Pochy\u0142a 1/2A","title":"CREODELIC - advertising agency","lon":17.0108507,"phone":"+48881437381","web":"http://creodelic.com","lat":51.1033685,"type":"node","id":3068279999,"icon":"_litecoin"},{"city":"42046 Reggiolo","addr":"Via Giacomo Matteotti 102 E","title":"Swifty Srl","lon":10.8063364,"phone":"+39 3334430853","lat":44.9175227,"type":"node","id":3071617103,"icon":"_litecoin"},{"addr":"Rue du Gorp 5","title":"ArqConnect","lon":1.4484051,"lat":43.5872163,"type":"node","id":3073105517,"icon":"_litecoin"},{"city":"01750 Replonges","title":"Recup Disque","lon":4.8818754,"email":"recup.disque@gmail.com","web":"http://www.recupdisque.info","lat":46.3089581,"type":"node","id":3078198424,"icon":"_litecoin"},{"city":"70816 Baton Rouge","addr":"South Sherwood Forest Boulevard 3636","title":"LocalMed","lon":-91.0519164,"phone":"225 590 3054","web":"http://LocalMed.com","lat":30.4195796,"type":"node","id":3080475348,"icon":"_litecoin"},{"city":"09126 Chemnitz","addr":"Bernhardstra\u00dfe 129","title":"Benten Graffiti Chemnitz","lon":12.9536751,"phone":"0177/5666897","lat":50.8303242,"type":"node","id":3095605051,"icon":"_litecoin"},{"city":"09126 Chemnitz","addr":"Bernhardstra\u00dfe 129","title":"Benten Tattoo Chemnitz","lon":12.9537283,"phone":"0177/5666897","lat":50.8303135,"type":"node","id":3095624350,"icon":"_litecoin"},{"city":" Bursa","addr":"Konserve sok. AVP. Mah.","title":"Dr. Ali \u00d6ZG\u00dcR","lon":29.2119444,"phone":"yes","lat":40.1997809,"type":"node","id":3100280420,"icon":"health_hospital"},{"web":"https://www.linkedin.com/profile/view?id=42855021","title":"Digital Para (Bitcoin) E\u011fitimi ve Dan\u0131\u015fmanl\u0131k hizmetleri","lon":29.1005723,"email":"yes","lat":40.9751041,"type":"node","id":3100321730,"icon":"_litecoin"},{"city":"LS19 7XS Leeds","addr":"Harrogate Road Coney Park","title":"Red Robot Media","lon":-1.6629421,"phone":"+441138800113","web":"http://red-robot.net","lat":53.8758271,"type":"node","id":3101537487,"icon":"_litecoin"},{"city":"53511 Beloit","addr":"Eclipse Center 120","title":"Apex Crypto","lon":-89.0300839,"web":"http://www.apexcrypto.com","lat":42.5133848,"type":"node","id":3105840561,"icon":"_litecoin"},{"city":"8001 Z\u00fcrich","addr":"Bahnhofstrasse 98","title":"Hoftman AG - Inv. Bank","lon":8.5397054,"email":"helpdesk@hoftman.com","phone":"+41 (0)76 206-9599","web":"http://www.hoftman.com/","lat":47.3760727,"desc":"Investment Mgmt. Services, Equity/Debt Financing, Risk Mgmt. Services & Investment Banking Services.","type":"node","id":3106314800,"icon":"_litecoin"},{"web":"http://spazmedia.com","title":"spaz media","lon":-79.4189237,"lat":43.6382351,"type":"node","id":3107913292,"icon":"_litecoin"},{"city":"07004 Palma de Mallorca","addr":"carrer de Juli\u00e0 \u00c1lvarez 11 bajos","title":"NINGEN SISTEMAS S.L.","lon":2.6527777,"phone":"+34 971 910 010","web":"http://www.ningen.es","lat":39.5799762,"type":"node","id":3110750047,"icon":"shopping_computer"},{"web":"http://winstonwong.com","title":"Winston Wong Photography + Visuals","lon":-123.1025726,"lat":49.2720602,"type":"node","id":3123347811,"icon":"_litecoin"},{"city":" Victoria","addr":"Douglas Street 1175","title":"Protip IT Services","lon":-123.3652773,"email":"info@protipit.com","phone":"250-418-0353","lat":48.4247922,"desc":"Bitcoin POS installations and training.  IT professionals who speak your language. ","type":"node","id":3124053289,"icon":"_litecoin"},{"city":" Sidney","addr":"Beacon Avenue 2248-2280","title":"Protip IT Services","lon":-123.4038735,"email":"info@protipit.com","phone":"250-418-0353","lat":48.649022,"desc":"IT professionals who speak your language.  Bitcoin POS sales and service","type":"node","id":3124063148,"icon":"_litecoin"},{"city":"1900 La Plata","addr":"3 915","title":"Arquitecto Alejandro Sago","lon":-57.9454348,"email":"alejandro@alejandrosago.com.ar","phone":"(0221) 482-2569","web":"http://alejandrosago.com.ar/","lat":-34.9113518,"desc":"Proyecto, direcci\u00f3n t\u00e9cnica y administraci\u00f3n. Se realizan consorcios al costo para la construcci\u00f3n de edificios. Casas y remodelaciones.","type":"node","id":3124418886,"icon":"_litecoin"},{"city":"V2R 0S6 Chilliwack","addr":"Soowalie Crescent 8-45290","title":"ParadoxBTC","lon":-121.9722594,"phone":"+1(604)-845-5526","web":"http://www.paradoxbtc.com","lat":49.1045855,"type":"node","id":3140274769,"icon":"_litecoin"},{"city":"56068 Koblenz","addr":"Kornpfortstra\u00dfe 1","title":"Print + Design - Druckerei und Copyshop","lon":7.5975096,"phone":"+49 261 1339270","lat":50.3609664,"type":"node","id":3143568498,"icon":"_litecoin"},{"city":"32750 Longwood","addr":"East S.R. 434 420","title":"The Bitcoin Museum (MMIT)","lon":-81.3393475,"phone":"407-310-6212","web":"http://www.mitnow.com/bitcoin/","lat":28.6976829,"type":"node","id":3147027596,"icon":"_litecoin"},{"city":"41011 Sevilla","addr":"Calle Virgen de \u00c1frica 22","title":"El Arco Iris","lon":-6.0023066,"phone":"+34  N\u00famero de tel\u00e9fono 955 325 077","lat":37.3751132,"type":"node","id":3148254379,"icon":"shopping_convenience"},{"city":"3001 BARQUISIMETO","title":"WWW.CONTROL.PW","lon":-69.4089131,"lat":10.0455142,"desc":"convertidor online de Bitcoin a Bolivares a precio actualizados de SICAD II y paralelo","type":"node","id":3151182043,"icon":"_litecoin"},{"city":"1080 Caracas","addr":"lomas de prados del este ","title":"TaxiUrbina","lon":-66.8848333,"phone":"+58 414 3776558","lat":10.4355405,"type":"node","id":3169438184,"icon":"_litecoin"},{"city":"08406 Ventnor City","addr":"Winchester Ave 6000","title":"Nubesita Kids Entertainment","lon":-74.475362,"email":"francheska.burgosatgmaildotcom","phone":"609-251-2412","web":"http://nubesitas.com","lat":39.338054,"type":"node","id":3172852994,"icon":"_litecoin"},{"web":"https://onebytetoomany.co.uk","title":"OneByteTooMany","lon":0.3144193,"lat":52.2744537,"type":"node","id":3175546187,"icon":"_litecoin"},{"city":"445-883 Hwaseong-si, Gyeonggi-do","addr":"Jeon-gok-ri(\uc804\uace1\ud56d\ub9c8\ub9ac\ub098 \uc694\ud2b8 \uacc4\ub958\uc7a5) 1076","title":"Tiffany Yacht Charter & Sailing Club","lon":126.6519134,"phone":"+82 10 7193 7319","lat":37.1867317,"type":"node","id":3176074369,"icon":"food_cafe"},{"web":"http://kcdj.pro","title":"JF Productions kcdj.pro","lon":-94.9459224,"phone":"913.909.6796","lat":39.3101151,"type":"node","id":3182993851,"icon":"_litecoin"},{"city":"45653-000 Ilh\u00e9us","addr":"Rua Marques de Paranagu\u00e1 30","title":"Travessa Restaurante e Lanchonete","lon":-39.0336926,"phone":"+55 73 3231-8710","web":"http://travessa.biz","lat":-14.799482,"type":"node","id":3186361030,"icon":"food_restaurant"},{"title":"Bitcoin/Litecoin  Alim/satim","lon":28.9848288,"phone":"+90 555 569 65 27","lat":41.0370747,"type":"way","id":5068361,"icon":"_litecoin"},{"city":"55122 Mainz","addr":"Am Judensand 76","title":"Pengland Mainz e.V.","lon":8.2405324,"web":"http://pengland.de/","lat":50.008749,"desc":"Pengland Mainz e.V. Verein f\u00fcr die F\u00f6rderung von Kunst, Kommunikation und Kultur. Dienstags Abends ab 20:30 offenes Wohnzimmer.","type":"way","id":24090158,"icon":"_litecoin"},{"city":"Atlanta, GA 30350","addr":"8343 Roswell Rd. #181","title":"testLegal Video Consulting, LLC","lon":-84.3496663,"phone":"404-259-6673","web":"http://www.legalvideoconsulting.com","lat":33.9832245,"type":"way","id":42882100,"icon":"_litecoin"},{"city":" London Borough of Islington","addr":"Warltersville Road 25","title":"Cromon Media Services","lon":-0.1242531,"lat":51.5711064,"type":"way","id":48915807,"icon":"_litecoin"},{"city":"1216CE Hilversum","addr":"Gijsbrecht van Amstelstraat 462","title":"ULiNS BV","lon":5.1520339,"web":"http://www.ulins.net/","lat":52.2228395,"type":"way","id":52648922,"icon":"_litecoin"},{"city":"L3R 5E4 Markham","addr":"Denison Street 825","title":"RAD Business Solutions Inc.","lon":-79.3349048,"email":"sales@radbusiness.ca","phone":"1-877-892-7739","web":"http://www.radbusiness.ca","lat":43.8252119,"type":"way","id":55462316,"icon":"_litecoin"},{"city":"851 06 Bratislava","addr":"Vy\u0161ehradsk\u00e1 6","title":"Stavia Slovakia","lon":17.102377,"web":"http://majster.ponuka.net","lat":48.0969905,"type":"way","id":68425615,"icon":"_litecoin"},{"city":"03401 Ru\u017eomberok","addr":"Hriadky 11","title":"paul D. lucas - reklama a creative \u0161t\u00fadio","lon":19.3009865,"web":"http://www.ponuka.net","lat":49.0770589,"type":"way","id":73310455,"icon":"_litecoin"},{"web":"https://plus.google.com/116929773201438840403/","title":"B&B Jan Burglin Pracownia projektowa","lon":17.5663352,"email":"bartosz.burglin@gmail.com","phone":"+48 52 397 3730","lat":53.6842995,"type":"way","id":74382637,"icon":"_litecoin"},{"city":"44892 Bochum","addr":"Hauptstra\u00dfe 207","title":"Zahnarztpraxis Tomic","country":"DE","lon":7.3250913,"lat":51.4719351,"type":"way","id":75548774,"icon":"_litecoin"},{"city":"25124 Brescia","addr":"Via Foro Boario 15","title":"Packet Loss s.r.l.","lon":10.2371405,"phone":"+39 030 20 70 157","web":"http://www.packetloss.it","lat":45.5281888,"type":"way","id":75663837,"icon":"_litecoin"},{"city":"33210 Langon","addr":"Cours Sadi Carnot 34","title":"Stickerzlab","lon":-0.2510217,"phone":"+33952730661","web":"http://www.stickerzlab.com","lat":44.5563059,"type":"way","id":78082268,"icon":"_litecoin"},{"city":"11501 Mineola","addr":"Roselle Street 39","title":"I-Tech Security","lon":-73.6363874,"web":"http://www.itech-ny.com","lat":40.753327,"type":"way","id":94947960,"icon":"_litecoin"},{"addr":"Laurel Street 501","title":"Erin Wooldridge at Burgess Pool","lon":-122.1760114,"lat":37.4535493,"type":"way","id":110427828,"icon":"_litecoin"},{"web":"http://www.ccandrsf.com","title":"Custom Computers & Repairs","lon":-122.4851366,"phone":"(415) 663-6227","lat":37.7570201,"type":"way","id":129881802,"icon":"_litecoin"},{"city":"35010 Vigodarzere","addr":"Via Roma 77/A","title":"Soluzioni e Referenze Srls","lon":11.8861948,"phone":"+39 348 3842428","web":"https://www.soluzionireferenze.it","lat":45.4533973,"desc":"Consulenze operative sul mondo Bitcoin, distributore smartphone Komu  accessori Keep","type":"way","id":133059095,"icon":"_litecoin"},{"city":"M3J 3K4 Toronto","addr":"Petrolia Road 8-800","title":"Colosseum Online Inc.","lon":-79.4899936,"phone":"+416-739-7873","web":"http://www.colosseum.com","lat":43.7796936,"type":"way","id":168770080,"icon":"_litecoin"},{"web":"http://pneubartos.cz/","title":"Bestdrive Pneuservis Vranovice","lon":16.6088601,"lat":48.970681,"type":"way","id":174741583,"icon":"shopping_car"},{"city":"39326 Rog\u00e4tz","addr":"Heinrichshorst 1","title":"Schloss Heinrichshorst","lon":11.7061514,"lat":52.3427226,"type":"way","id":183596952,"icon":"tourist_castle"},{"city":"80221 Denver","addr":"Broadway Street 7100","title":"Amagi Metals","lon":-104.9850737,"phone":"1-800-882-8496","web":"http://amagimetals.com","lat":39.8258738,"type":"way","id":205680970,"icon":"_litecoin"},{"city":"50678 K\u00f6ln","addr":"An der Bottm\u00fchle 5","title":"CoWoCo Bottfabrik","country":"DE","lon":6.9625373,"phone":"+49 179 135 35 39","web":"http://www.coworkingcologne.de/","lat":50.9221267,"type":"way","id":208198967,"icon":"_litecoin"},{"city":" Ubud","title":"Blue Lotus 1 - 2 Bedroom apartment for short term rent","lon":115.2511847,"web":"http://www.adormo.com/en/2-bedrooms/Blue-Lotus-1/2714","lat":-8.5097231,"type":"way","id":216942049,"icon":"_litecoin"},{"addr":"Avenue Van Bever - Van Beverlaan ","title":"Btc2B","lon":4.383868,"lat":50.7851597,"type":"way","id":225203667,"icon":"place_of_worship_unknown"},{"city":"80-227 Gda\u0144sk","addr":"Do Studzienki 31C","title":"Bitcoin 4 World","lon":18.6097069,"phone":"662053345","web":"http://btc4world.com","lat":54.373367,"type":"way","id":228734593,"icon":"_litecoin"},{"city":"5011 Woodville","addr":"Port Road 850","title":"Medical Centre","lon":138.5354061,"phone":"+61 8 8440 5200","lat":-34.8813241,"type":"way","id":230565962,"icon":"_litecoin"},{"city":"1027 Budapest","addr":"Csalog\u00e1ny utca 3/b","title":"Fatumjewels \u00c9kszer \u00e9s Dr\u00e1gak\u0151 Gal\u00e9ria","lon":19.0378421,"phone":"+3619511193","web":"http://fatumjewels.hu","lat":47.5079741,"type":"way","id":249666836,"icon":"_litecoin"},{"city":"10002 New York","addr":"Essex Street 39","title":"Old Man Hustle","lon":-73.9895893,"phone":"(212) 253-7747","lat":40.7161642,"type":"way","id":250268185,"icon":"food_pub"},{"web":"http://www.kgmedia.com","title":"KGMedia Graphic Design","lon":-84.2978822,"lat":34.0952367,"type":"way","id":251096798,"icon":"_litecoin"},{"web":"http://www.symbian-toys.com/","addr":"Via Brenta 13","title":"Symbian-Toys","lon":7.6857844,"lat":45.1015926,"type":"way","id":252337644,"icon":"_litecoin"},{"city":"07039 Livingston","addr":"Edgemere Road ","title":"Teacher Tutors","lon":-74.3293288,"email":"info@theteachertutors.com","phone":"(973) 317-8839","lat":40.793025,"type":"way","id":253617970,"icon":"_litecoin"},{"city":"26-930 Garbatka-Letnisko","title":"Graming.pl","lon":21.5427992,"phone":"+48 505 156 328","web":"http://graming.pl/","lat":51.4702691,"type":"way","id":256102672,"icon":"_litecoin"},{"web":"http://dl.dropbox.com/u/5013076/Casa4/Casa4.html","addr":"Rua Combatestes do Ultramar 97b","title":"P\u00e1tio Pinh\u00e3o - Houses for Rent","lon":-9.1975849,"email":"jorge.aluga@yahoo.com","phone":"(00)351-219834794","lat":38.8423931,"type":"way","id":256112675,"icon":"_litecoin"},{"web":"http://www.adormo.com/en/Designer-Family-Home-in-Central-London/3781","addr":"De Beauvoir Road 75A","title":"Ed's Shed","lon":-0.0806893,"lat":51.5413817,"type":"way","id":256681456,"icon":"_litecoin"},{"city":"KGN10 Kingston","addr":"Hagley Park Road 6","title":"Commerce Court Plaza","lon":-76.8010078,"lat":18.0098323,"type":"way","id":257033614,"icon":"_litecoin"},{"city":"06000 Ankara","addr":"Cevizlidere Cad. 4/25A","title":"Ivmech Mechatronics","lon":32.8171021,"phone":"+90 312 473 00 14","web":"http://www.ivmech.com","lat":39.8779789,"type":"way","id":257820795,"icon":"_litecoin"},{"city":"94588 pleasanton","addr":"Rheem Drive 2150","title":"Oam Studios","lon":-121.87503,"phone":"9259894756","web":"http://www.oamstudios.com","lat":37.6852425,"type":"way","id":259475638,"icon":"_litecoin"},{"city":"76182 North Richland Hills","addr":"Precinct Line Road 8245","title":"EMC Express Care","lon":-97.1882719,"phone":"817 503 8800","web":"http://emcexpresscare.com/","lat":32.9059854,"type":"way","id":260288999,"icon":"health_hospital"},{"city":"G8Y 1H7 Trois-Rivi\u00e8res","addr":"Rue Maurice-L.-Duplessis 255","title":"Le kiosque de Crypto-monnaie","lon":-72.5837721,"phone":"18193847488","lat":46.3654491,"type":"way","id":260524910,"icon":"_litecoin"},{"city":"34236-8511 Sarasota","addr":"Fruitville Road #335 1680","title":"Genitrust, Inc","lon":-82.5401336,"phone":"866-841-2646","web":"http://genitrust.com","lat":27.3412409,"type":"way","id":266148962,"icon":"_litecoin"},{"city":"8340431 Vi\u00f1a del Mar","addr":"Avenida Coraceros 50c","title":"Bit Inn Suites","lon":-71.5476256,"phone":"+56228977080","web":"http://www.bitinnsuites.com","lat":-33.0069101,"type":"way","id":266486748,"icon":"accommodation_hotel"},{"city":"66020 San Giovanni Teatino","addr":"Via Colombo 32-34 Via","title":"Tilm Giuliani","lon":14.1872731,"phone":"+39 085 4463456","web":"http://www.tilm.it","lat":42.4250932,"desc":"Tilm Giuliani - www.tilm.it - realizza griglia a carbone per braceria e cottura alla brace - carne, pesce, arrosticini, grill barbecue anche su misura.","type":"way","id":267637426,"icon":"_litecoin"},{"city":"10025 New York","addr":"West 92nd Street 55","title":"GR Web Design - Internet Services","lon":-73.9680932,"phone":"516-458-4034","lat":40.7898491,"type":"way","id":270892002,"icon":"shopping_computer"},{"city":"J7A 2H1 Rosem\u00e8re","addr":"Boulevard Cur\u00e9-Labelle 138","title":"Joya","lon":-73.7988035,"phone":"(450) 419-8040","web":"http://www.joyabistro.com/","lat":45.6216713,"type":"way","id":271357212,"icon":"food_restaurant"},{"city":"41038 San Felice sul Panaro","addr":"Via Dei Mestieri 50","title":"Intermediae","lon":11.1357673,"lat":44.831546,"type":"way","id":273640202,"icon":"_litecoin"},{"web":"http://www.molenaarmeubelen.nl","title":"Molenaar Meubelen","lon":5.1493472,"phone":"+31135113650","lat":51.6093408,"type":"way","id":280007059,"icon":"_litecoin"},{"city":"89216-140 Joinville","addr":"Rua Timb\u00f3 1801","title":"SAP WM CONSULTANT","lon":-48.8604669,"phone":"+55 47 9999-5451","lat":-26.2931913,"type":"way","id":297304907,"icon":"_litecoin"},{"city":"10954 Nanuet","addr":"E Route 59 81","title":"B & M Cosmetics","lon":-74.0085428,"phone":"845-627-2200","web":"http://www.bandmcosmetics.com/","lat":41.0955756,"type":"way","id":310018793,"icon":"_litecoin"},{"addr":"Constitution Avenue NW 1111","title":"Internal Revenue Service Building","lon":-77.0262189,"lat":38.8940342,"type":"relation","id":1029370,"icon":"_litecoin"},{"city":"93534 Lancaster","addr":"West Lancaster Boulevard 661 suite 101","title":"The Secret Studio","lon":-118.1417088,"phone":"661-992-4716","lat":34.6987066,"type":"relation","id":3510385,"icon":"_litecoin"},{"city":"4731HX Oudenbosch","addr":"Jezu\u00efetenplein 33","title":"Brasserie Tivoli","lon":4.5290184,"phone":"+31 (0)165 726 996","web":"http://www.brasserietivoli.nl","lat":51.5881598,"type":"relation","id":3627118,"icon":"food_restaurant"}]